,Location,Name,Category,Description,Latitude,Longitude,coords,xy_coords,x,y
0,"Borrego Salton Seaway, Borrego Springs, CA 92004, USA",Anza Borrego - NICE,Wild Camping,Free Camping on Anza Borrego Park. Nice and was very quiet. Has something away a toilet.  Price: FREE,33.280572,-116.146887,"(33.280572, -116.146887)","(-12929412.318063887, 3932604.6941878623)",-12929412.318063887,3932604.6941878623
2,"Unnamed Road, Austin, NV 89310, USA",Spencer Hotsprings,Wild Camping,"Hammer site. Lots of places for vehicle or tent camping with good views.

Three pools, the one in the center can be somewhat adjusted temperature wise.

Roads leading to it are 2wd dirt roads and should be easy unless wet.",39.330566999999995,-116.85462700000001,"(39.330566999999995, -116.85462700000001)","(-13008197.574477918, 4769133.681418734)",-13008197.574477918,4769133.681418734
3,"Burr Trail Rd, Boulder, UT 84716, USA",Burr Trail - NICE,Wild Camping,Very quiet sleeping places on the Burr Trail to Boulder on a BLM road.,37.870193,-111.33751299999999,"(37.870193, -111.33751299999999)","(-12394035.253349474, 4561104.631550915)",-12394035.253349474,4561104.631550915
4,"Coral Pink Sand Dunes Rd, Kanab, UT 84741, USA",Coral Pink Sand Dunes - OK,Wild Camping,Free camping without nothing in the BLM area. But you can also everywhere else camped nearby!  Price: Free,37.06816,-112.70284,"(37.06816, -112.70284)","(-12546022.759755783, 4448611.67541179)",-12546022.759755783,4448611.67541179
5,"Lincoln Highway, Ruth, NV 89319, USA",Ely - OK,Wild Camping,"Cookies at the 50 to Ely. Heard BLM. Fire pit, benches and trash cans. From here, start some offroad trails. Goods only at noon there. Traffic has hardly!",39.310427000000004,-114.990007,"(39.310427000000004, -114.990007)","(-12800629.025554962, 4766235.62656856)",-12800629.025554962,4766235.62656856
6,"National Forest Development Road 427, Ely, NV 89301, USA",Elyn - OK,Wild Camping,"Sleeping area in NF. Was super quiet here, albeit cold.",39.509519,-114.68078999999999,"(39.509519, -114.68078999999999)","(-12766207.146570338, 4794920.824895097)",-12766207.146570338,4794920.824895097
7,"Anniversary Mine Road, Overton, NV 89040, USA",Lake Mead RA - NICE,Wild Camping,"Nice place outside the Lake Mead Recreation Area between the Valley of Fire and Las Vegas on a 4x4 route slightly away from the main road. Very quiet, aircraft can be heard sometimes.",36.201046999999996,-114.68543700000001,"(36.201046999999996, -114.68543700000001)","(-12766724.448244058, 4328320.509026327)",-12766724.448244058,4328320.509026327
8,"159 East 300 South, Kanab, UT 84741, USA",McDonalds Kanab - NAJA,Informal Campsite,Shakedown at McDonalds in Kanab for the morning to drive directly to the raffle Wave.,37.04363,-112.52511200000001,"(37.04363, -112.52511200000001)","(-12526238.169296078, 4445189.992685115)",-12526238.169296078,4445189.992685115
9,"Mc Nerney Rd, Brawley, CA 92227, USA",Salton Sea - OK,Wild Camping,"Sleeping place behind a palm tree at the Salton Sea. You can sleep anywhere here beside the road. Is not especially beautiful, but good starting point for the Salton Sea bird watching.",33.074692,-115.656803,"(33.074692, -115.656803)","(-12874856.416737953, 3905222.2788743414)",-12874856.416737953,3905222.2788743414
10,"497-499 Gazos Creek Road, Pescadero, CA 94060, USA",San Mateo - OK,Wild Camping,Quiet place to sleep far away from the main road on a side street on nem big turnaround.,37.185469,-122.33373700000001,"(37.185469, -122.33373700000001)","(-13618129.309678253, 4464990.400895278)",-13618129.309678253,4464990.400895278
11,"Smoky Mountain Rd, Utah, USA",Smokey Mountain Rd - NICE,Wild Camping,"Very nice place on top of the cliff with great views! Attention, certainly often windy!",37.187857,-111.45148,"(37.187857, -111.45148)","(-12406722.001756713, 4465324.078243816)",-12406722.001756713,4465324.078243816
12,"Laverkin Overlook Rd, La Verkin, UT 84745, USA",BLM Free Camping West of Zion,Wild Camping,Sleeping place just off the main road on Ner old road. War according to circumstances but quiet at night.,37.206002000000005,-113.237558,"(37.206002000000005, -113.237558)","(-12605547.295233782, 4467859.83989624)",-12605547.295233782,4467859.83989624
13,"710-810 North Masters Road, Port Angeles, WA 98362, USA","Walmart, Port Angeles, Washington ",Informal Campsite,"Amazingly quiet place

Update 2019-06-01 : Especially quiet next to the garden center.",48.111156,-123.36028600000002,"(48.111156, -123.36028600000002)","(-13732404.221632596, 6125367.195071942)",-13732404.221632596,6125367.195071942
15,"Unnamed Road, Marble Canyon, AZ 86036, USA",White Pocket ,Informal Campsite,"Sleeping place right in front of the White Pocket on the parking. Super quiet, 0 Services. Ideal for morning and sunset photos!",36.95507,-111.893,"(36.95507, -111.893)","(-12455871.78333176, 4432845.973667879)",-12455871.78333176,4432845.973667879
16,"NFD 88, Hyder, AK 99923, USA",Hyder - OK,Wild Camping,"Roosting in Hyder himself next to the river on a large square. Access a little further forward direction glacier. Wild camping, caution due to bears!",55.97306,-130.06825,"(55.97306, -130.06825)","(-14479131.358372206, 7553054.532229046)",-14479131.358372206,7553054.532229046
25,"San Juan National Forest, Usfs 622, Bayfield, CO 81122, USA",National Forest Outside Durango,Wild Camping,"Free.  Great quiet camping in canyon next to river.  National forest.  At end of First Fork road (12 miles on a good dirt road), a few miles east of Durango on the way to Pagosa Springs.  Trails.  ",37.355468,-107.32356399999999,"(37.355468, -107.32356399999999)","(-11947204.494599305, 4488770.944756141)",-11947204.494599305,4488770.944756141
26,"United States Forest Grand Mesa, 8001-8227 Co Road 858, Gunnison, CO 81230, USA",National Forest outside Ouray,Wild Camping,"Beautiful mountain scenery along this 40 mile dirt road which crosses Owl Creek mountain pass, between Ridgway and Montrose.  Cold at night.  No facilities, free.  Plenty of boondocking opportunities.",38.203734000000004,-107.51165900000001,"(38.203734000000004, -107.51165900000001)","(-11968143.13422007, 4608246.707404037)",-11968143.13422007,4608246.707404037
27,"Gunnison National Forest, 11088-11860 Co Road 12, Colorado, USA",National Forest outside Crested Butte,Wild Camping,"Free. Beautiful mountain scenery, 15 minutes on dirt road outside town of Crested Butte.",38.857836,-107.155026,"(38.857836, -107.155026)","(-11928442.93025999, 4701328.209252986)",-11928442.93025999,4701328.209252986
28,"330 East Road, Silt, CO 81652, USA",National Forest outside Glenwood Springs,Wild Camping,"Free.  National Forest camping off a dirt road, with good views in all directions.  Quiet, only sound you hear are distant cows.  No facilities.",39.331221,-107.66824,"(39.331221, -107.66824)","(-11985573.651407968, 4769227.803048878)",-11985573.651407968,4769227.803048878
29,"Co Rd 67, Maybell, CO 81640, USA",Wild Horse Area,Wild Camping,"Free camping in the middle of the Sand Wash Wild Horse area.  No facilities, BLM land.  This spot is next to a small natural pond where lots of wild horses and other animals like pronghorn come to drink.",40.679653,-108.398995,"(40.679653, -108.398995)","(-12066920.925902607, 4965204.765828834)",-12066920.925902607,4965204.765828834
30,"Forest Rd 539, Utah, USA",Flaming Gorge national Forest,Wild Camping,Free wild camping in Flaming Gorge.  Great mountain scenery.  ,40.848644,-109.706122,"(40.848644, -109.706122)","(-12212429.637944747, 4990042.256430126)",-12212429.637944747,4990042.256430126
41,"Tonto National Forest, Highline Trail, Pine, AZ 85544, USA",Pine Trailhead,Wild Camping,"Free camping with access to great hiking, drop toilet on site. Brewery with great food and free wifi short walk away. ",34.374055,-111.443445,"(34.374055, -111.443445)","(-12405827.54964819, 4079139.7447972964)",-12405827.54964819,4079139.7447972964
43,"Monongahela National Forest, Forest Road 18, Hambleton, WV 26269, USA",Big Run Falls,Wild Camping,"This is a primitive site located along a forest road in Monongahela National Forest. The forest road is graded in sections, but is unimproved in other sections. Four-wheel drive may not be required, but is strongly recommended. The site is marked by a fire circle, and a large, deteriorating picnic table. There is room for roughly a half dozen vehicles, or a couple of modately-sized off-road campers. While we've never encountered other campers there, it is evidently a popular spot. It is a superb destination for hiking, biking, and exploring. There are a number of amazing waterfalls in the immediate vicinity.",39.10823,-79.56955,"(39.10823, -79.56955)","(-8857641.788649922, 4737186.469926972)",-8857641.788649922,4737186.469926972
44,"US-95, Nevada, USA","Rest Stop After Tonopah, NV",Informal Campsite,"Rest area with basic amenities: restrooms, picnic table, parking area for RVs.",38.140570000000004,-117.45378000000001,"(38.140570000000004, -117.45378000000001)","(-13074894.98134518, 4599302.715563543)",-13074894.98134518,4599302.715563543
45,"U.S. 40, Duchesne, UT 84021, USA",Rest Stop On Highway 40,Informal Campsite,Free parking,40.204231,-110.713002,"(40.204231, -110.713002)","(-12324515.006834678, 4895665.107112415)",-12324515.006834678,4895665.107112415
48,"Cherry Tree Camp, Munford, AL 36268, USA",Cherry Tree Hunter's Camp ,Wild Camping,"Small open area in the forest, no creeks or other water sources. Has a quality fire ring, and plenty of space for tents. thick pine canopy stops underbrush from growing too thick. Really pleasant campsite. ",33.48236,-85.88734000000001,"(33.48236, -85.88734000000001)","(-9560934.954388756, 3959505.6075625443)",-9560934.954388756,3959505.6075625443
51,"Redwood Hwy, Trinidad, CA 95570, USA",Trinidad County Rest Area,Informal Campsite,"Apparently in California, you can stay at a State rest area for up to 8 hours. The rest area has running water, picnic tables and flush toilets. Another nice thing to find out, is that you can use stoves (either at the picnic tables, or outside of your vehicle). They are patrolled by both state troopers and highway patrol and I would think are pretty safe. California has a lot of vagabond travelers through (vehicle, bicycle and foot) so be sure to lock your stuff up. These rest areas may be just the thing for the camper trying to put in a long day, or one that has run out of affordable options.",41.09215,-124.15018,"(41.09215, -124.15018)","(-13820334.819493258, 5025943.284052418)",-13820334.819493258,5025943.284052418
55,"United States, North Carolina, Montgomery",Top of Daniel at Uwharrie National Forest,Wild Camping,Free site since its National Forest land. Takes a fairly capable 4x4 vehicle to get up the trail. Cleared campsite with rock fire pits at the top. Primitive camping,35.41813,-80.033146,"(35.41813, -80.033146)","(-8909249.05930372, 4220849.523867879)",-8909249.05930372,4220849.523867879
56,"1701-1749 11th Ave, Seattle, WA 98122, USA",Cal Anderson Park ,Wild Camping,"We rolled into Capitol Hill, Seattle thinking that it would be easy to poach a spot on the street, only to find that the streets were all over crowded with bumper to bumper parking. We did find the Gold mine though - Cal Anderson Park, just off of Broadway and Pike Street - One of the places where Grunge Rock started. Cal Anderson park was nominated for some kind of ""wholesome award"" and was indeed a fantastic place to park for the night (in small Camper Van style -Not a place for big rigs). The pay parking ends at 20:00 and then it is free until 08:00 weekdays and weekends. It is located right beside the park itself which has a well lit Soccer field (lights out around 23:00), Tennis courts, basketball, a walking area, and is well used by Seattle-ites. There are some fantastic pubs like The Unicorn, or Nuemo's (Nirvana played there) a couple blocks away on Pike Street. The parking spots are Back in- Horizontal spots, so again- No Big rigs (Sorry). ",47.61649,-122.31823,"(47.61649, -122.31823)","(-13616403.078334518, 6043287.945360091)",-13616403.078334518,6043287.945360091
65,"NF-3530, Government Camp, OR 97028, USA",Devil's Half Acre Meadow,Wild Camping, Primitive road. One fire pit. Enough space for multiple tents and vehicles. Big open meadow. Another area across the road as well.  Road is closed during the snow season. ,45.271716999999995,-121.68151999999999,"(45.271716999999995, -121.68151999999999)","(-13545524.845351532, 5664399.680084102)",-13545524.845351532,5664399.680084102
66,"BLM251, Utah, USA",Near Batty Pass Caves,Wild Camping,"Near the base of Fifty-Mile mountain. Two large, flat, primitive sites can accommodate fairly large groups. This location is very near Batty Pass caves, three old rancher caves worth visiting if you are in the area. This location is also near (on the other side of the Hole-in-the-Rock road) Peek-a-boo and Spooky gulches (part of the upper end of Coyote gulch), two popular, short, and excellent non-technical slot canyons. Dogs are allowed in this location, but note that if you are here for Coyote Gulch features, dogs are not allowed there.",37.45375,-111.25953999999999,"(37.45375, -111.25953999999999)","(-12385355.338693852, 4502543.825794941)",-12385355.338693852,4502543.825794941
67,"United States, San Juan, Brushy Basin Rd",West of Blanding,Wild Camping,Very scenic overlook.,37.6382,-109.56979,"(37.6382, -109.56979)","(-12197253.229125919, 4528440.932659234)",-12197253.229125919,4528440.932659234
70,"United States, Colorado, Hinsdale, County Road 142",Camping On Burr Trail,Wild Camping,"Free camping , nice views",38.017395,-107.314311,"(38.017395, -107.314311)","(-11946174.455350997, 4581883.434489212)",-11946174.455350997,4581883.434489212
71,"United States, Texas, Webb, US-83 S",Flying J,Informal Campsite,"A great last stop in USA before crossing into Mexico. Free to camp , pay showers ( $12) , internet $ 1.99 for an hour. ",27.684820000000002,-99.465064,"(27.684820000000002, -99.465064)","(-11072400.276200365, 3209294.6030729176)",-11072400.276200365,3209294.6030729176
72,"Robson Ranch Rd, Aguila, AZ 85320, USA",Near Robsons Mining World,Wild Camping,"ADMIN NOTE: Permits needed for overnight stay.

-------------------------

A desert camping location that is tucked back in the trees. Dry camp.  The nearby attraction has a restaurant with limited hours. Interesting glimpse into mining life. ",34.01193,-113.12459,"(34.01193, -113.12459)","(-12592971.754997848, 4030404.046170212)",-12592971.754997848,4030404.046170212
73,"S San Joaquin Rd, Tucson, AZ 85735, USA","Snyder Hill, Tucson, AZ",Wild Camping,"This is a piece of BLM land northeast of the junction of San Joaquin Rd and W Ajo Highway. To the southwest of Tuscon. The area is accessed from the San Joaquin Rd and is criss crossed with gravel tracks. It is fairly level and covered in small desert trees and bushes so it is possible to remain unseen from the adjacent roads if your vehicle is not too high. It is also possible to pitch a tent as there was one here at the same time as me. There are no facilities what-so-ever and traffic noise can be heard from the Ajo Highway. The use of the site is free. The co-ordinates are 32.156941, -111.116493.",32.157740000000004,-111.11581899999999,"(32.157740000000004, -111.11581899999999)","(-12369356.39015755, 3784034.310288006)",-12369356.39015755,3784034.310288006
76,"United States, Arizona, Yavapai, Agua Fria National Monument",Agua Fria National Monument,Wild Camping,"Lots of areas for off road camping with solitude. Road starts off easy, but 4wd / high clearance needed further on & on side roads. Bloody Basin exit off I-17. Archaeological site too that you can walk around. ",34.245599,-112.024622,"(34.245599, -112.024622)","(-12470523.877348952, 4061827.8391377446)",-12470523.877348952,4061827.8391377446
79,"United States, North Carolina, Haywood, Hurricane Creek Rd",Hurricane Creek Camp,Wild Camping,"Trail directly off I40 in NC. Camp site just about a mile in from interstate.  You turn off interstate at the end of guard rail, not an exit.  Boondock camping. Large low hanging branches, not ok if you are taller than 8 feet. ",35.718790999999996,-83.01459799999999,"(35.718790999999996, -83.01459799999999)","(-9241142.777768305, 4261996.118175971)",-9241142.777768305,4261996.118175971
81,"United States, I-10 E",New Mexico Welcome Center,Informal Campsite,Free to camp out in their parking lot overnight. A couple of other people camped here also night we were here. Clean bathrooms open all night. Noisy (right by highway)  but convenient & free. ,32.3528,-108.742847,"(32.3528, -108.742847)","(-12105198.355450857, 3809710.7258890173)",-12105198.355450857,3809710.7258890173
83,"United States, California, Kern, CA-58 E","Boron State Rest Area, Eastbound",Informal Campsite,"This is a State Rest Area, so note that there are signs that state maximum 8 hour stay, which is common with all State Rest Areas. Pretty easy to stay longer though as it would be state troopers that ask you to move along, and they are few and far between. 

The Rest area has a paved ring road with parking spots under small trees, within short walking distance to picnic tables. As well, a large gravel area circles most of the paved road as well, so many large units can pull over. The west side of the Rest area also has some trees that one can pull their vehicle between to get more shade/ wind cover. Semi trailers have a separate lot to park in.

The washrooms are clean enough for a high traffic Rest area, but staff were there early cleaning up (so use the facilities after they clean). Garbages are all over the place, as are the shaded and non-shaded tables. No outside water source found, but there are vending machines on site. 

Good place, but It was a little loud. The trucks (of course) run all night and there is a train that passes the Rest area once every hour (at least). There must be an unmarked crossing on the tracks, as the trains blow their horn three or four times each time. ",35.00666,-117.71851000000001,"(35.00666, -117.71851000000001)","(-13104364.590142885, 4164786.2482979256)",-13104364.590142885,4164786.2482979256
84,"US-90, Marfa, TX 79843, USA",Marfa Mystery Lights Viewpoint ,Informal Campsite,"A large pull out rest area with tables, restrooms and seating designed for the overnight viewing of the Marfa Lights. Overnight parking in all Texas rest areas is legal, but this one truly expects it! Added bonus is seeing the lights on the horizon. We did!!           Highway noise and trains can be a disruption. Also lots of viewers pulling on/off the road may be an issue. None of this bothered us, but be aware. No charge for this location. ",30.275446999999996,-103.884001,"(30.275446999999996, -103.884001)","(-11564314.092887921, 3539005.3514515073)",-11564314.092887921,3539005.3514515073
91,"United States, Oregon, Sherman, John Day Dam Rd",Rufus,Informal Campsite,"North side of I-84 @ Rufus. Was a CoE Park that apparently got turned over to a county that can't afford to maintain it. Pit toilet. No water (other than the river.) Paved to the east, sand to the west. Blackberrys in mid/late summer.",45.700959999999995,-120.72985,"(45.700959999999995, -120.72985)","(-13439585.425548298, 5732556.669495628)",-13439585.425548298,5732556.669495628
92,"Celilo Park Rd, The Dalles, OR 97058, USA",Celilo Park,Informal Campsite,"Tribal Park. Informal parking lot camping. Toilets, potable water. Salmon for sale by the tribes occasionally.",45.65116,-120.95855,"(45.65116, -120.95855)","(-13465044.19309272, 5724622.5088948775)",-13465044.19309272,5724622.5088948775
99,"2511 Jacaman Rd, Laredo, TX 78045, USA",Staybridge Suites,Informal Campsite,"Free! We stayed at Mc Donalds for free Wifi and saw this little Lake behind the Staybridge Suites. Quiet in the Night, no traffic..",27.55896,-99.447171,"(27.55896, -99.447171)","(-11070408.4365516, 3193481.672765468)",-11070408.4365516,3193481.672765468
100,"United States, Arizona, Yavapai, Soda Springs Rd",Coconino Forest Arizona,Informal Campsite,"Free Trailer Parkingmeter,nice",34.676579,-111.71945,"(34.676579, -111.71945)","(-12436552.285704587, 4120015.921069374)",-12436552.285704587,4120015.921069374
103,"Muley Point Rd, Mexican Hat, UT 84531, USA",Muley Point,Wild Camping,"This area is full of great wild camp options but this is one of our favorites even though the secret seems to be out so you will probably not be alone. It can get windy up here but the views are unbeatable. Only amenity here is fire pits. For an unforgettable drive, head north off the 163 through the valley of the gods (road turns off 7.5 miles north of Mexican Hat) on your way here. Roads in are dirt and not suitable for huge rigs. ",37.233296,-109.99328100000001,"(37.233296, -109.99328100000001)","(-12244396.031601453, 4471675.321850672)",-12244396.031601453,4471675.321850672
109,"Arizona Trail, Flagstaff, AZ 86001, USA",Marshall Lake Dispersed Camping,Wild Camping,Open camp sites in the middle of a tall pine forest. About 5 minutes off Lake Mary Road. Huge open areas with lots of places to choose from. Some spots have rock fire pits. ,35.103164,-111.54154299999999,"(35.103164, -111.54154299999999)","(-12416747.769056026, 4177909.57226573)",-12416747.769056026,4177909.57226573
110,"Forest Service Rd 302, Grand Canyon Village, AZ 86023, USA",Kaibab Forest Dispersed Camping,Wild Camping,Free camping at about a dozen sites in pine forest with dire circles.,35.966931,-112.12467,"(35.966931, -112.12467)","(-12481661.169763837, 4296072.082157356)",-12481661.169763837,4296072.082157356
113,"1-35 Peacock Ln, Cloudcroft, NM 88317, USA",Lincoln National Forest Wild Camp ,Wild Camping,"Lots of pull outs off this forest road to camp. We chose this one with a meadow, fire ring and a pile of wood. Near Rim Trail trail head. Free and very remote. ",32.903124,-105.77153600000001,"(32.903124, -105.77153600000001)","(-11774433.527942406, 3882452.3429507376)",-11774433.527942406,3882452.3429507376
116,"Lafitte Greenway Trail, New Orleans, LA 70112, USA",New Orleans Parking Lot ,Informal Campsite,"
Behind Basin Street Visitor Centre, walking distance to famous French Quarter. The best place to spend a night if you are totally self-contained as there are no RV facilities. Paid parking: $5/10 hours or $10/24 hours for trucks and vans, $50/24 hours for RVs. Quiet during the night, we felt safe the night we stayed there. Right next to us is the French Quarter RV Resort where campers pay close to $100/night! 

Bathrooms available when the Visitor Centre is open (8:30-5:30).

Weekend prices are a bit higher I believe. ",29.961181,-90.070846,"(29.961181, -90.070846)","(-10026640.712039363, 3498560.9982926724)",-10026640.712039363,3498560.9982926724
120,"1043 Conti Street, New Orleans, LA 70112, USA",Premium Parking Lot Nr. 338,Informal Campsite,"It is very difficult to find a good overnight place in the center of New Orleans. We stayed on a parking lot at the edge of the French Quarter for 6 USD for 10 hours on daytime and 15 USD for 12 hours during evening and the night. There is no security. No facilities but surprisingly quiet during night. The only central campground ""French Quarter RV Resort"" would have cost around 100 USD/night!!!",29.958058,-90.070183,"(29.958058, -90.070183)","(-10026566.907216966, 3498159.728938703)",-10026566.907216966,3498159.728938703
121,"1227 NW Evangeline Throughway, Lafayette, LA 70501, USA",Lafayette - Walmart No Overnight Parking,Informal Campsite,No Overnight Parking on the parking lot of Walmart. ,30.239165999999997,-92.014725,"(30.239165999999997, -92.014725)","(-10243032.332483098, 3534329.596693122)",-10243032.332483098,3534329.596693122
127,"Low Rd, Calipatria, CA 92233, USA",Slab City,Wild Camping,Love it or hate it!  its s great place in the desert to meet others or just get some solitude.,33.25827,-115.4632,"(33.25827, -115.4632)","(-12853304.629361905, 3929635.376467018)",-12853304.629361905,3929635.376467018
128,"Unnamed Road, Mammoth Lakes, CA 93546, USA",Mammoth Lakes I Laurel Springs,Wild Camping,A couple of free campsites and a nice little creek. ,37.61728,-118.89583,"(37.61728, -118.89583)","(-13235423.25304362, 4525500.502117891)",-13235423.25304362,4525500.502117891
129,"Casa Diablo Road, Bishop, CA 93514, USA",Bishop I Volcanic Tablelands,Wild Camping,Free BLM camping near Bishop. Great place for rock climbing!,37.427479999999996,-118.42232,"(37.427479999999996, -118.42232)","(-13182712.360958096, 4498860.674061708)",-13182712.360958096,4498860.674061708
130,"Inyo National Forest, Buttermilk Road, Bishop, CA 93514, USA",Bishop I Buttrmilk Country,Wild Camping,Free camping in the Inyo National forest.,37.32833,-118.57923000000001,"(37.32833, -118.57923000000001)","(-13200179.50225847, 4484971.103326104)",-13200179.50225847,4484971.103326104
131,"Tahoe National Forest, Overlook Road, Nevada City, CA 95959, USA",Nevada City Omega Scenic Viewpoint Rest area,Wild Camping,There's a scenic overlook near Nevada City. It's a USFS area with some picnic tables. No reception for T-mobile.,39.31497,-120.75266,"(39.31497, -120.75266)","(-13442124.623133294, 4766889.270834409)",-13442124.623133294,4766889.270834409
132,"Forest Rd 1N44, Lee Vining, CA 93541, USA",Mono Lake,Wild Camping,ADMIN NOTE: Do NOT camp here! Camping here is ILLEGAL and is harmful to the environment. This entry is only kept to warn users about this.,37.94489,-119.09353,"(37.94489, -119.09353)","(-13257431.116373451, 4571643.540722671)",-13257431.116373451,4571643.540722671
133,"Movie Road, California, USA",Lone Pine,Wild Camping,"Free dispersed camping. With Hiking Trails, Horse Trails and Rock Climbing Area. Nice place to stay on US 395.",36.62771,-118.12641,"(36.62771, -118.12641)","(-13149771.81043746, 4387340.628182228)",-13149771.81043746,4387340.628182228
134,"Cottonwood Springs Road, Indio, CA 92201, USA",Joshua Tree South BLM,Wild Camping,"Free Campsites at south entrance of the NP. The National Park has potable water and dump for $5.
Its BLM Land....so no problem for overnight camp.....official overflow camp for yoshuatree Park
",33.67453,-115.80265,"(33.67453, -115.80265)","(-12891092.030511681, 3985182.6346362564)",-12891092.030511681,3985182.6346362564
135,"Painted Canyon Road, California, USA",Painted Canyons I Mecca,Wild Camping,Free desert camping. Can be soft sand at times and hot in the summer.,33.6193,-116.00008000000001,"(33.6193, -116.00008000000001)","(-12913069.837579, 3977797.1529596797)",-12913069.837579,3977797.1529596797
136,"Cascade Rd, Joshua Tree, CA 92252, USA",Joshua Tree North BLM,Wild Camping,Big open flat area in a dry lake bed surrounded by mountains,34.17293,-116.22466000000001,"(34.17293, -116.22466000000001)","(-12938069.968821354, 4052046.003467167)",-12938069.968821354,4052046.003467167
137,"Box Canyon Road, Mecca, CA 92254, USA",Box Canyon,Wild Camping,"Very nice area with soft sand, very quiet during the day and at night. Beware: This is a flash flood area!!!",33.58684,-115.97716000000001,"(33.58684, -115.97716000000001)","(-12910518.394850016, 3973458.73627422)",-12910518.394850016,3973458.73627422
138,"482 Tsali Boulevard, Cherokee, NC 28719, USA",Cherokee Casino Parking Lot,Informal Campsite,"Huge parking lot of the Casino, officially you are allowed to stay here for one night if you are joining the casino. We didn't and no one asked us to do so. There were a lot of other RVs. Quiet night. Free. No facilities. ",35.467721000000004,-83.296922,"(35.467721000000004, -83.296922)","(-9272570.941687027, 4227625.62397108)",-9272570.941687027,4227625.62397108
155,"Squaw Hollow Rd, McKinnon, WY 82938, USA",Flaming George / Green River No. 4,Wild Camping,"Wild camping at the river. There is a simple toilet / no showers. We were almost alone out there. No checkpoint but a reminder to pay a daily fee of 5 dollars or 15 dollars a week you put in a mailbox. Beautiful and clean. At the Wyoming site, No. 4",41.165040000000005,-109.557759,"(41.165040000000005, -109.557759)","(-12195913.944332186, 5036715.588473716)",-12195913.944332186,5036715.588473716
161,"5271 Owls Nest Road, Kane, PA 16735, USA",Owls Nest ,Wild Camping,old 1928 natural gas town.  part of Allegheny National Forest.  center of overland camping for me.  many great dispersed campsites ,41.471412,-78.888152,"(41.471412, -78.888152)","(-8781788.910262367, 5082125.468204235)",-8781788.910262367,5082125.468204235
163,"Interstate 84, Boardman, OR 97818, USA",rest area,Informal Campsite,"kids playground, bathrooms, free coffee sometimes and a good place to rest.",45.82942,-119.80298700000002,"(45.82942, -119.80298700000002)","(-13336407.508353174, 5753055.666319717)",-13336407.508353174,5753055.666319717
166,"Old New Mexico 52, Magdalena, NM 87825, USA","Sweet Spot, Cibola NF, NM",Wild Camping,"Great mountain top spot in pine forest, with a view of the desert valley. Not too far off of Hwy 60, and just off gravel US Forest Service road. Gravel road is in good shape, however we did use 4wd to get up steep road to camp site. Perfect spot to relax for a day or more. Go for a hike, or just enjoy the view. Price....FREE. Other camping in area if you don't love this spot.",33.910963,-107.514867,"(33.910963, -107.514867)","(-11968500.247146532, 4016852.788969343)",-11968500.247146532,4016852.788969343
167,"NF-522, Flagstaff, AZ 86001, USA","Coconino NF, Dispersed Camping",Wild Camping,"14 or so(sites 10-14 closed when we were here) sites in beautiful pine forest just 10 miles outside of downtown Flagstaff. Great mountain views, trails, and even rock climbing if you're into that. Best of all....free!",35.2926,-111.704196,"(35.2926, -111.704196)","(-12434854.218192026, 4203715.7522821585)",-12434854.218192026,4203715.7522821585
168,"Cottonwood Canyon Rd, Utah, USA","Cottonwood Canyon, BLM",Wild Camping,Nice little spot about 25 miles outside of Bryce Canyon in BLM land. Tucked away near stream and in the shade of a few trees. Free! Clean!,37.322792,-111.882778,"(37.322792, -111.882778)","(-12454733.875496872, 4484195.845565333)",-12454733.875496872,4484195.845565333
169,"Muley Point Rd, Mexican Hat, UT 84531, USA",Muley Point,Wild Camping,"As Song of the Road stated, there are a few nice spots here. We stayed just about 1km from the place they camped. Super flat, awesome views, level and a great fire pit/tower. Maybe this place has been discovered, but we were alone here in the middle of summer. Not to be missed!",37.23857,-109.981633,"(37.23857, -109.981633)","(-12243099.382172694, 4472412.7438962655)",-12243099.382172694,4472412.7438962655
170,"Forest Road 092, Utah, USA",Bear Pooh Overlook,Informal Campsite,"Looking for a free spot with a great view? Don't mind a little leveling, or possibly sharing the spot with some fury brown friends? This spot could be for you. Just off Forest Service road, fire pit, and has a GREAT view of the Utah landscape(hoodoos, etc). Not too far from Natural Bridge National Monument and kinda on the way to Canyonlands NP. ",37.66145,-109.83176599999999,"(37.66145, -109.83176599999999)","(-12226416.264045976, 4531709.830138949)",-12226416.264045976,4531709.830138949
173,"Portage Glacier Rd, Girdwood, AK 99587, USA",Wild Camp in Portage Valley,Wild Camping,"Nice little spot right next to a glacial pond. The adjacent forest is really green and nice to walk in, but there are quite a few mosquitos. There is a walking trail (Trail of Blue Ice) on the other side of the highway that we took all the way up to Byron Glacier and back. It’s a great path and was about 10 miles round trip. The spot by the forest is the best spot, but every night it seems like several other campers accumulate in the open area at the entry to the spot. No big deal and everyone has been friendly. Lots of locals come and trout fish in the lake. We saw several bald eagles and a moose went for a swim in the pond one morning just after breakfast. We have been traveling for 6 weeks straight, so we decided to take a break for a bit. We ended up staying here for 6 nights. Great spot. We came by here 8 years ago and thought it was a nice spot, so we returned. Glad we did. Decent cell coverage.",60.792588,-148.90038,"(60.792588, -148.90038)","(-16575514.480524939, 8578353.05862381)",-16575514.480524939,8578353.05862381
175,"47152-47204 U.S. 95, Quartzsite, AZ 85346, USA","BLM- Camp Unit Improved, La Posa LTVA West",Wild Camping,blm long term camping. winter $180 from Sept to April. or $40 for 2 weeks. dump station in la posa south. ,33.651934000000004,-114.2181,"(33.651934000000004, -114.2181)","(-12714700.7313752, 3982160.4731538347)",-12714700.7313752,3982160.4731538347
176,"Corn Springs Road, California, USA",BLM-RA Camping Unit Rec Site ,Informal Campsite,"BLM site, $6 per vehicle. 
Rocky area so tents might be an issue. 
Some sandy sections on the road in. No exit to the road. 
",33.626917,-115.324817,"(33.626917, -115.324817)","(-12837899.904267458, 3978815.43399735)",-12837899.904267458,3978815.43399735
181,"111 East Marcy Drive, Big Spring, TX 79720, USA","walmart, big spring, 24/7",Informal Campsite,clean toilets.overnight place on the walmart parking.for free.,32.228433,-101.46691700000001,"(32.228433, -101.46691700000001)","(-11295245.532803355, 3793333.501187368)",-11295245.532803355,3793333.501187368
183,"36578 S Parks Hwy, Willow, AK 99688, USA",Sustina River Banks,Wild Camping,"Right next to Sustina River, next to Highway 3. you can Drive on riverbed and have a nice view on the river. You can decide how far you want to be away from highway....you can go as far as 500m. Easy drive, no 4WD necessary, 175km North of anchorage and 49km South of denali view Point South - for FREE",62.174549,-150.181277,"(62.174549, -150.181277)","(-16718103.282323569, 8900650.350195888)",-16718103.282323569,8900650.350195888
184,"Alaska 8, Cantwell, AK 99729, USA","Denali Highway Pullouts, Right By A Lake With Spectacular Mountain View - Top",Wild Camping,"Pullout right by a lake on denali Highway, goes down a Little Hill, spectacular view of Snow-capped Mountains, beautiful...along the denali Highway are many, many beautiful spots for Wild Camping with breathtaking views over valleys, creeks, rivers or Mountains...sth for every taste. Some are loser to the Highway (gravelroad), some are more Remote....Traffic is not too bad though",63.105738,-146.65536799999998,"(63.105738, -146.65536799999998)","(-16325600.887860145, 9126225.184270142)",-16325600.887860145,9126225.184270142
185,"Driftwood Beach State Wayside, Seal Rock, OR 97376, USA","Driftwood Beach State Park Parking Lot, Free, NICE!",Informal Campsite,"ADMIN NOTE: Place removed because camping is illegal here.  
",44.464316,-124.080582,"(44.464316, -124.080582)","(-13812587.205573026, 5537579.580481583)",-13812587.205573026,5537579.580481583
194,"2916 N Old Glenn Hwy, Palmer, AK 99645, USA",Matanuska River,Wild Camping,"Next to the banks of Matanuska river just before the entrance of the town of Palmer. Nice, hidden and quiet parking area. A bit noisy because of the highway but all good. Turn left before crossing the bridge on your way to Palmer. Check for the ""photo"" sign beforehand.",61.608582,-149.06923700000002,"(61.608582, -149.06923700000002)","(-16594311.555781819, 8766921.568412272)",-16594311.555781819,8766921.568412272
195,"Hancock Road, Kanab, UT 84741, USA",Camp Dream,Wild Camping,On the top of a dune near a  nice rock. Sandy,37.144628000000004,-112.58331000000001,"(37.144628000000004, -112.58331000000001)","(-12532716.741021266, 4459285.2840751)",-12532716.741021266,4459285.2840751
196,"Forest Rd 3626, Utah, USA",Free Campground In National Forest,Wild Camping,Many permitted free campsite in the forest near fireplace made with stones. Very nice! Follow small roads starting from the gravel road.,37.72352,-112.252452,"(37.72352, -112.252452)","(-12495885.796936383, 4540441.750929393)",-12495885.796936383,4540441.750929393
198,"North Slope Haul Road, Alaska, USA",33km After Coldfoot,Wild Camping,"Nice place way off the Dalton Hgw. Seemingly, an old gravel pit, now given back to the""nature"".",67.486139,-149.880977,"(67.486139, -149.880977)","(-16684674.039238349, 10295964.628459929)",-16684674.039238349,10295964.628459929
199,"Dalton Hwy, Prudhoe Bay, AK 99734, USA",Deadhorse,Wild Camping,Closest to Deadhorse. There are more than 10 similar places at the river more to the south. AT&T 5bars,70.19710699999999,-148.407535,"(70.19710699999999, -148.407535)","(-16520651.226084925, 11133174.574812956)",-16520651.226084925,11133174.574812956
202,"Richardson Highway, Glennallen, AK 99588, USA","Hub Of Alaska, Tesoro Gas Station, Glennallen/ Glennallen Visitor Center, Alaska",Informal Campsite,"On the back of the Glennallen Visitor Center/ Tesoro gas station, there is a huge parking lot where you can park and sleep. There are potta potties outside and normal restrooms inside the convenience store of the gas station. There are also 3 canteens that sell hot food. You can easily find the place. Its right at the Glennallen junction (north to Tok/ south to Valdez). Only drawback, you have to pay for wifi at the visitor center (5USD for an hour!!!!!).",62.108608999999994,-145.476474,"(62.108608999999994, -145.476474)","(-16194367.008080903, 8884941.825651621)",-16194367.008080903,8884941.825651621
203,"Forest Rd 30311, Moose, WY 83012, USA",Grand Tetons View,Wild Camping,"Boon-docking site with amazing view of the Grand Tetons. Fire pits, no facilities. Windy and you need 4wd to drive up to the sites. ",43.769601,-110.540954,"(43.769601, -110.540954)","(-12305362.711082676, 5429856.36129144)",-12305362.711082676,5429856.36129144
204,"Unnamed Road, Forks, WA 98331, USA",Kalaloch Creek,Wild Camping,"Wild campspot on a forest road, just 10 minutes outside of Olympic national park and Kalaloch campground where we filled up on water. Really quiet.",47.623852,-124.36131200000001,"(47.623852, -124.36131200000001)","(-13843837.926223423, 6044503.7948775375)",-13843837.926223423,6044503.7948775375
205,"3000 UT-24, Torrey, UT 84775, USA",Capitol Reef NP - West Entrance -Free,Wild Camping,On the left before the entrance of Capitol Reef NP. Space for a variety of campers,38.327123,-111.363707,"(38.327123, -111.363707)","(-12396951.156091316, 4625740.948266874)",-12396951.156091316,4625740.948266874
206,"Garnet Range Rd, Drummond, MT 59832, USA",Garnet Ghost Town Secret Spot,Wild Camping,"One of our favorite Montana spots, and it is with much hesitation that we add it to the list. Don't screw it up! We are watching you! ",46.837615,-113.33645200000001,"(46.837615, -113.33645200000001)","(-12616556.124956293, 5915608.868890542)",-12616556.124956293,5915608.868890542
208,"Exit Glacier Rd, Seward, AK 99664, USA","Chugach Trailhead, Resurrection River",Informal Campsite,Parking spaces with views to Exit Glacier.  Near the road but because that road leads only to trek starting point then no traffic at all. ,60.194556000000006,-149.587,"(60.194556000000006, -149.587)","(-16651948.669293413, 8443181.604222754)",-16651948.669293413,8443181.604222754
210,"408 3rd Ave E, Culbertson, MT 59218, USA",Bruegger Centennial Park,Informal Campsite,"City park campground in Culbertson. allows for 5 days of camping.
Amenities, flush toilet, water, bbq, covered picnictables and even unsecured wifi from one of the neighbouring houses.",48.146921,-104.512915,"(48.146921, -104.512915)","(-11634324.479120685, 6131332.152086694)",-11634324.479120685,6131332.152086694
212,"Taylor Hwy, Chicken, AK 99732, USA",Riverside Before Chicken,Wild Camping,Good place on riverside. Lots of good places where to park and make campfire 5 meters from river. ,64.064872,-141.995996,"(64.064872, -141.995996)","(-15806921.96940371, 9366256.853178956)",-15806921.96940371,9366256.853178956
214,"1494 Mt Pleasant Rd, Jefferson City, TN 37760, USA",Clapp Farms,Informal Campsite,"This is a private farm with a large camping area for overlanders.  You need permission to camp, but it is free and you have access to a bathroom and water. Call the owner at 8657556663",36.118846999999995,-83.421863,"(36.118846999999995, -83.421863)","(-9286479.31018623, 4316986.882595333)",-9286479.31018623,4316986.882595333
216,"Sands / Old Hwy 89, Orderville, UT 84758, USA",Mount Carmel,Wild Camping,"Free campsite with nice view, the stars ar great in the night.firering",37.207109,-112.67548899999998,"(37.207109, -112.67548899999998)","(-12542978.060363095, 4468014.562747599)",-12542978.060363095,4468014.562747599
224,"Radio Hill Rd, Blanding, UT 84511, USA",Recapture Reservoir,Wild Camping,"This site is located north of Blanding on a small Lake and has approximately 4-5 sites along the lake whitout any facilities.
Camping possible on north and south shore of the lake.",37.671009999999995,-109.44561999999999,"(37.671009999999995, -109.44561999999999)","(-12183430.687954117, 4533054.241554213)",-12183430.687954117,4533054.241554213
225,"Little Walker River Rd, Bridgeport, CA 93517, USA","Toiyabe National Forest, Obsidian Campground",Wild Camping,"Just outside of the Obsidian campground, there is a giant pine tree where you can park. Deadly quiet. Only thing you can hear is the wind. The place is within the Toiyabe NF. About 10 min drive from the main road (US 395). ",38.297914,-119.44871100000002,"(38.297914, -119.44871100000002)","(-13296969.684432898, 4621596.974975473)",-13296969.684432898,4621596.974975473
226,"Grand Canyon Hwy, Arizona, USA",Authorized wild camping,Wild Camping,"At this poit there is two unpaved roads, choose the one you want and get there : you will find a lot of places already used, just take one! 
For the water, Kaibab campground is just next.
This place is safe and well known from the locals, close from the Grand Canyon North Rim. Nice hikes around.",36.40108,-112.12947,"(36.40108, -112.12947)","(-12482195.503319645, 4355950.633603937)",-12482195.503319645,4355950.633603937
227,"Forest Rd 114, Mountain Home, ID 83647, USA",Just Past Johnson Bridge Hot Springs,Wild Camping,This is a large flat area of pines with a few campfire circles and plenty of space. No services. Back at the main road is Johnson Bridge- turn hard right after the bridge. Hot springs are a series of user built pools along the side of the river. Best ones are near fallen trees. Nice soak. Easy walk or bike ride from camp. Nearest town is Pine or Featherville. ,43.534597999999995,-115.293797,"(43.534597999999995, -115.293797)","(-12834446.773663053, 5393700.372918662)",-12834446.773663053,5393700.372918662
228,"5301 Cameron Rd, Elk, CA 95432, USA",Turnout Space,Wild Camping,"The place is a huge spot on the road, with no advices (no trespassing, private ecc) great for a night if you don't want spend money just for sleep. Really quite.

If you go beyond the tree line off the cleared area, then the No Tresspassing sign posted on two trees will apply",39.1547,-123.699422,"(39.1547, -123.699422)","(-13770156.668462262, 4743855.307680666)",-13770156.668462262,4743855.307680666
229,"CA-108, California, USA",NF Spot ,Wild Camping,"Good spot, plenty of space also for bigger vehicles, trails ecc. Place to turn around. ",38.326832,-119.557455,"(38.326832, -119.557455)","(-13309075.011139719, 4625699.654941956)",-13309075.011139719,4625699.654941956
230,"56400 Apple Canyon Rd, Mountain Center, CA 92561, USA",Campsites On National Forest Ground,Wild Camping,"Between 5 and 10 spots in a pine forest, some of them with table and grill ring.",33.675905,-116.66945,"(33.675905, -116.66945)","(-12987583.765131291, 3985366.5632556435)",-12987583.765131291,3985366.5632556435
231,"Baker Hot Springs Rd, Utah, USA",Baker Hot Springs,Wild Camping,Three man made pools approximately 2 meters by 1 meter. Fed by natural artesian springs one hot one cold. You control the temperature by directing the separate flows. No services. Easy road expect it to be bumpy but passable by small car to large truck. Looks like it could be treacherous in the rain.,39.610509,-112.730474,"(39.610509, -112.730474)","(-12549098.962564366, 4809502.8905829)",-12549098.962564366,4809502.8905829
249,"Forest 525 Rd, Sedona, AZ 86336, USA","near Sedona, AZ",Wild Camping,"good pull out off FR 525.   awesome views, not a lot of traffic and has some fire pits.",34.845779,-111.91364399999999,"(34.845779, -111.91364399999999)","(-12458169.862899695, 4142942.826192689)",-12458169.862899695,4142942.826192689
250,"Nf-371, Payson, AZ 85541, USA",Mogollon Rim lookout site,Wild Camping,"on the FR 300 
next to rim
beautiful views",34.25355,-111.20258999999999,"(34.25355, -111.20258999999999)","(-12379015.693693174, 4062898.620378606)",-12379015.693693174,4062898.620378606
253,"UT-20, Utah, USA",Side Of Highway- Dirt Road,Wild Camping,At the top of a long climb. Turn and cross cattle guard. A few rocks but okay by car. Open area with fire ring. Trees. Grass. Easy access. It does have highway noise though. ,38.030064,-112.532211,"(38.030064, -112.532211)","(-12527028.426361218, 4583673.718744033)",-12527028.426361218,4583673.718744033
254,"Forest Service Rd 282, Fredonia, AZ 86022, USA",Flat Area Near Meadow ,Wild Camping,Off forest road 212 go left on 9096. Many areas to choose from,36.614094,-112.212097,"(36.614094, -112.212097)","(-12491393.498885421, 4385452.107926745)",-12491393.498885421,4385452.107926745
255,"Valley of the Gods Rd, Mexican Hat, UT 84531, USA",Valley of the Gods,Wild Camping,"A nice place in the middle of nature.the place is on a dirtroad, not possible to drive wen wet.very quiet during night. A lot of places on this road",37.283524,-109.81132099999999,"(37.283524, -109.81132099999999)","(-12224140.337056708, 4478700.4046587255)",-12224140.337056708,4478700.4046587255
256,"33993 US-160, Mancos, CO 81328, USA",Mesa verde Nationalpark (outside In BLM),Wild Camping,"Close to the entrence of mesa verde nationalpark, on a dirtroad more then one spot for free with firering. In the park by the store are laundrys with coins, showers for free and fast wifi.

From Hwy 160, get off at MC RD 34, then a few hundred metres, turn right at the first gravel road. Good secluded sites, a bit noisy from highway but it gets quiet after 9 pm. Some sites showed signs of overuse and garbage was left. One site looked like it had been used extensively by ""travelers"", with garbage bags left at the site. Lots of coyotes around. Note that showers and laundromat inside the NP are closed for the winter.",37.35949,-108.42285,"(37.35949, -108.42285)","(-12069576.45235548, 4489334.2189035425)",-12069576.45235548,4489334.2189035425
257,"38th Ave SW, Great Falls, MT 59404, USA",Flying J,Informal Campsite,"Truck stop, large parking lot, clean restrooms. ",47.469491999999995,-111.359131,"(47.469491999999995, -111.359131)","(-12396441.758101447, 6019046.663394629)",-12396441.758101447,6019046.663394629
258,"121000 E Browns Gulch Rd, Butte, MT 59701, USA",Flying J truck stop,Informal Campsite,"Huge truck stop close to Butte. Free. $10 showers. Free potable water in the red spigot in the rock barriers between the two gas station sections, bring your own hose",46.008788,-112.607933,"(46.008788, -112.607933)","(-12535457.760843066, 5781757.615271963)",-12535457.760843066,5781757.615271963
261,"Lock Hart Rd, Moab, UT 84532, USA",Dispersed Camping close to Canyonlands NP Needles District ,Wild Camping,"Just 5 miles outside the Park. Nice Panorama, but close to HW 211 (quiet at night). Free. No facilities.",38.179479,-109.668479,"(38.179479, -109.668479)","(-12208239.238352817, 4604811.294262685)",-12208239.238352817,4604811.294262685
262,"County Rd 34, Nevada, USA",Black Rock Desert View from Granite Range,Wild Camping,"This campsite provides a stunning panoramic view looking east out over Black Rock Desert. It is situated on BLM land, at the eastern edge of the Granite Mountain Range, about 450 ft. elevation above the Black Rock Desert playa surface. A rock fire circle and a clearing large enough for two trucks are the only amenities. This spot quite exposed, and can be windy -- but is still somehow mostly invisible from the road below, ensuring privacy.

Access: Turn off State Highway 34 at [GPS: 40.7514, -119.2843] (just southwest of the ""12 mile playa access""), and drive north about 1.5 miles along a rocky trail. High clearance vehicles only.

",40.7609,-119.2751,"(40.7609, -119.2751)","(-13277643.396316784, 4977138.179979719)",-13277643.396316784,4977138.179979719
264,"2840 Mary Ave, Sanger, CA 93657, USA","Wallmart Sanger / 2761 Jensen Ave, Sanger, CA 93657",Informal Campsite,"
Pleasantly quiet WM car park with many trees. Internet in MC Donalds.

Angenehm ruhiger WM Parkplatz mit vielen Bäumen. Internet im MC Donalds. ",36.705559,-119.575528,"(36.705559, -119.575528)","(-13311086.888296828, 4398144.590591636)",-13311086.888296828,4398144.590591636
270,"Will Creek Rd, Big Sur, CA 93920, USA",Los Padres Dispersed Camping ,Wild Camping,"MODERATOR NOTE: Place removed because camping is illegal here.  
",35.89034,-121.45953999999999,"(35.89034, -121.45953999999999)","(-13520814.144785242, 4285542.797283864)",-13520814.144785242,4285542.797283864
287,"9700 I-40, Amarillo, TX 79118, USA",Texas Travel Information Center,Informal Campsite,"A big parking lot with restrooms (24 hours) and free wifi. In Texas there are 12 travel information centers where you are allowed to stay for free overnight (anthony, austin, denison, gainesville, langtry, laredo, orange, texarkana, valley, waskom, wichita falls). ",35.191249,-101.725817,"(35.191249, -101.725817)","(-11324066.148969732, 4189901.587455789)",-11324066.148969732,4189901.587455789
290,"N Ch Pl, San Luis, CO 81152, USA",SanLuisCamp,Informal Campsite,"Behind the church, quiet, nice.",37.200672999999995,-105.424994,"(37.200672999999995, -105.424994)","(-11735856.64896392, 4467115.049544246)",-11735856.64896392,4467115.049544246
292,"I-70, Thompson, UT 84540, USA",WelcomeToUtahCamp,Informal Campsite,"Beautiful landscape, I did park at the information office with tables, water and pit toilets open in the night",38.951888000000004,-109.68420400000001,"(38.951888000000004, -109.68420400000001)","(-12209989.73734554, 4714782.282633565)",-12209989.73734554,4714782.282633565
298,"Box Canyon Rd, California, USA",Box Canyon Road,Wild Camping,"My opinion....the best place along the nice box canyon road.
Sandy loop, 4 Wheel usefull...Camp setup just in the middle in front of the Rocks.
Morning sun beautiful.No wind, warm.Car could not be seen from the Street,even at night. Very quiet.
Mecca is only a 7 mile drive...getting Water and food....and Mecca looks and feels like beeing in mexico!",33.617405,-115.918898,"(33.617405, -115.918898)","(-12904032.698677419, 3977543.8332717544)",-12904032.698677419,3977543.8332717544
299,"49806-50116 Seminole Dr, Cabazon, CA 92230, USA",Morongo Casino,Informal Campsite,"Free Morongo Casino parking area set aside specifically for RVs.
24 hour security.
Free Shuttle bus (call phone number on notice) to bingo hall and main casino
Toilets available in adjacent bingo hall, as is a basic snack bar. Other restaurants available at main casino.
Train runs down the other side of the valley so expect the usual un-musical train horns cacophony played loud and long every half hour all day and all night. ",33.921929999999996,-116.79398,"(33.921929999999996, -116.79398)","(-13001446.381319778, 4018323.9436264695)",-13001446.381319778,4018323.9436264695
304,"Kolob Terrace Rd, Virgin, UT 84779, USA",Kolob Terrace Rd near Zion NP,Wild Camping,"About 20km out of Springdale (south entrance of Zion NP), you turn right in the Kolob Terrace Rd (paved road). You follow approximately 2-3 km and you turn right. If its rainy or its not totally dry, it will be slippery and you probably need 4x4 and high clearance due to the soft red sand. There are plenty of spots by the river. We were not alone (two caravans were permanently settled). ",37.220962,-113.161353,"(37.220962, -113.161353)","(-12597064.19343788, 4469950.956744944)",-12597064.19343788,4469950.956744944
307,"I-10, Coachella, CA 92236, USA",Spotlight 29 Casino,Informal Campsite,Casino parking lot with clear sign for RV camping possibility.Free. ,33.714469,-116.185934,"(33.714469, -116.185934)","(-12933759.01022089, 3990526.32436343)",-12933759.01022089,3990526.32436343
308,"US-89A, Marble Canyon, AZ 86036, USA",Camp Rocks,Wild Camping,Free bush camp near big rocks. Wonderful position. 500m from restaurant and lodge. ,36.746834,-111.75053799999999,"(36.746834, -111.75053799999999)","(-12440012.986034367, 4403877.215556118)",-12440012.986034367,4403877.215556118
311,"Unnamed Road, Carlsbad, NM 88220, USA",BLM rd 772,Wild Camping,Just outside Carlsbad Caverns national park. Clearance for a loose climb. Nice sunset. ,32.207599,-104.346699,"(32.207599, -104.346699)","(-11615821.398638988, 3790592.177067524)",-11615821.398638988,3790592.177067524
312,"Unnamed Road, Carlsbad, NM 88220, USA",Carlsbad NM (blm),Wild Camping,"A lot of nice places at a rough gravelroad in blm clos to the carlsbad NM, fire rings, nice view and quiet",32.206007,-104.350054,"(32.206007, -104.350054)","(-11616194.8755306, 3790382.728575502)",-11616194.8755306,3790382.728575502
313,"Mountain Palms Rd, California, USA",Mountain Palm Springs Campground,Wild Camping,"Nice place in the desert.Very quiet.Clean Pit toilet.Nice trails to group of Palms, like Oasis. We liked it.
It seem to be free camping, so no costs.
Good place to stop before going to the mexican Border",32.862446000000006,-116.215174,"(32.862446000000006, -116.215174)","(-12937013.992131686, 3877060.171079864)",-12937013.992131686,3877060.171079864
319,"Forest Service Rd 618, Rimrock, AZ 86335, USA",National Forest Road 618 Loop,Wild Camping,"Gravel loop. quiet. pack in, pack out.
Rock fire rings.",34.683827,-111.72668300000001,"(34.683827, -111.72668300000001)","(-12437357.459581496, 4120997.0760567547)",-12437357.459581496,4120997.0760567547
320,"NF-1045, Waldport, OR 97394, USA",Waldport Forest Road,Wild Camping,Forest road pull out. Nothing special just overnight wildcamp spot,44.374547,-124.05696699999999,"(44.374547, -124.05696699999999)","(-13809958.395797942, 5523588.334705517)",-13809958.395797942,5523588.334705517
321,"Oregon Coast Hwy, Port Orford, OR 97465, USA",Lookout Rock,Wild Camping,"Great oceanview pullout from the 101. Was one other rv camping, but for the rest nicely hidden from the road. Bit windy and could hear traffic but as an overnight boondocksite not to bad. Free water and a dump (and coin showers) 3 miles north at Humbug Mountain State Park. ",42.643268,-124.407742,"(42.643268, -124.407742)","(-13849006.490180954, 5257830.270475979)",-13849006.490180954,5257830.270475979
322,"27149-27183 Mattole Rd, Ferndale, CA 95536, USA",The Lost Coast And Cape Mendecino,Wild Camping,Beautiful rugged coastline on the lost coast. There are quite a few pull outs and parking spots along this bit of coast netto the road. Good for surfing too. Some cars Will come by but its pretty remote and absolutely stunning scenery,40.392843,-124.372475,"(40.392843, -124.372475)","(-13845080.585699147, 4923194.453026924)",-13845080.585699147,4923194.453026924
323,"Bates Well Rd, Ajo, AZ 85321, USA",Ajo BLM Land Boondocking Site,Wild Camping,"A boondocker's dream. Access by high clearance vehicles only. Expect thorny trees to scratch your vehicle's paint. Bring your own firewood. No facilities, no network coverage.",32.292703,-112.853714,"(32.292703, -112.853714)","(-12562817.976609727, 3801794.0685260417)",-12562817.976609727,3801794.0685260417
324,"Berdoo Canyon Rd, Desert Hot Springs, CA 92241, USA",Berdoo Canyon Trail ,Wild Camping,"Rough road to a side entrance Joshua Tree National Park. High clearance essential. Do not attempt when rain is expected- high risk flash flood area! Sorrowly sometimes used as a shooting range, trash all over.",33.829972,-116.13995200000001,"(33.829972, -116.13995200000001)","(-12928640.317395236, 4005994.2053093603)",-12928640.317395236,4005994.2053093603
325,"Old Government Road, Cima, CA 92323, USA",Mojave Ntl Preserve Cedar Cyn. Rd. West,Wild Camping,"It's an established campground actually but it feels almost like boondocking and it's free. Beautiful scenery. A couple of firerings, no other facilities. Wood cutting and gathering prohibited. Access by high clearance vehicles only.",35.182015,-115.613961,"(35.182015, -115.613961)","(-12870087.26711339, 4188643.848398596)",-12870087.26711339,4188643.848398596
326,"321 Tecopa Hot Springs Rd, Tecopa, CA 92389, USA",Tecopa Warm Pool dispersed Camping ,Wild Camping,Dispersed camping on BLM Land with your own pool on the site. Close to the town of Tepoca. Can get busy at night. Water temperature is around 85*F — too cool in the winter. Tepoca Mud Baths clothing optional public natural hot springs where the water emerges from the ground at 118° close by (1.2 miles).,35.872690000000006,-116.21887,"(35.872690000000006, -116.21887)","(-12937425.428969659, 4283117.822713353)",-12937425.428969659,4283117.822713353
329,"385 Alley Rd, Ajo, AZ 85321, USA",Ajo (blm),Wild Camping,"Severel nice places at a gravelroade in blm (free) no toilet, water or tables, just firerings, very quiet and in the middle of cactus",32.348545,-112.893654,"(32.348545, -112.893654)","(-12567264.077072011, 3809150.0362042235)",-12567264.077072011,3809150.0362042235
330,"12527 Pine St, Fort McCoy, FL 32134, USA",Ocala National Forest,Wild Camping,"There are also established campgrounds around as well. This particular spot is near the town of Salt Springs, so I can pick up Verizon 4GLTE, no ATT coverage but there are 600sq miles of forest to explore.",29.330709999999996,-81.74924,"(29.330709999999996, -81.74924)","(-9100283.769537112, 3417805.7219988657)",-9100283.769537112,3417805.7219988657
332,"Unnamed Road, Big Sur, CA 93920, USA",Prewitt Ridge Rd. - Los Padres NF,Wild Camping,"One of the most spectacular campsites on the pacific coast, weather permitting. There are numerous sites with varying degree of view and cover situated on the mountain top directly over the coast. At the top of Nacimiento rd turn right onto the Forrest road, after about 3 miles, where the road forks, turn right and continue for another 2 miles or so. There are many sites throughout the 12 mile drive from hwy1 but the most spectacular are towards the end at the top of the mountain. Give yourself plenty of time to get here as the road in is slow and can be steep in places. Experienced drivers could get in with any car. Some sites have fire rings and tables. It can get quite windy. The GPS is to our favorite site. ",35.972599,-121.454575,"(35.972599, -121.454575)","(-13520261.443513455, 4296851.691425986)",-13520261.443513455,4296851.691425986
333,"Kofa Queen Canyon Road, Yuma, AZ 85365, USA",Kofa National Wildlife Refuge,Wild Camping,"Miles of free BLM camping in the area, no  designated sites, no water or toilett.but you stay in the middle of a desert between some cactus for free ( its all gravel, for some places high clearence needfully",33.382166999999995,-114.14804299999999,"(33.382166999999995, -114.14804299999999)","(-12706902.021808693, 3946140.8000833364)",-12706902.021808693,3946140.8000833364
334,"Northshore Rd, Overton, NV 89040, USA",Overton,Wild Camping,"Located a few miles north of the east entrance to Valley of Fire State Park on 169, this huge mesa is known as ""Snowbird Mesa"" or ""Poverty Flats"" depending on your point of view. there are no signs limiting stays and there appear to be some long term residents. There are a few stone fire rings and plenty of stones to make more. There can be dozens to hundreds of rigs depending on the season. There are several roads in to the east side which goes back a good ways.(free)",36.480224,-114.45316499999998,"(36.480224, -114.45316499999998)","(-12740868.04747852, 4366902.245516875)",-12740868.04747852,4366902.245516875
335,"Heritage Trail, California, USA",Mojave Desert - Heritage Trail Rd.,Wild Camping,Beautiful but exposed as there's no trees just smaller shrubbery. ,34.330662,-114.661543,"(34.330662, -114.661543)","(-12764064.58033104, 4073288.743767646)",-12764064.58033104,4073288.743767646
336,"Buckeye Rd, Bridgeport, CA 93517, USA",Buckeye Hot Springs,Wild Camping,"Many free campsites in national forest land adjacent to a creek and Buckeye Hot Springs.  Also nearby is Twin Lakes Campground (Forest Campground) but it was closed. Only campfire rings in the campsites, no facilities.",38.230385,-119.321091,"(38.230385, -119.321091)","(-13282763.091017857, 4612022.803599293)",-13282763.091017857,4612022.803599293
340,"Movie Flat Rd, Lone Pine, CA 93545, USA",Alabama Hills,Wild Camping,Alabama hills recreation area. You are allowed to stay for free in the middle of all the rock formations. It has some firepits and it's very quiet and a great place to stay and walk.,36.613943,-118.12106299999999,"(36.613943, -118.12106299999999)","(-13149176.585120186, 4385431.166306701)",-13149176.585120186,4385431.166306701
341,"2038 Jenifer St, Madison, WI 53704, USA",Nomadizens Home,Informal Campsite,"Former overlanders in the Americas. Happy to host fellow overlanders in the area. Driveway parking for small rigs and street parking for big rigs. We have an extra bedroom and a nice, hot shower. Please email in advance (if possible) nomadizens@gmail.com.
NOTE: We will be moving June 29, 2018, so will no longer be able to host travelers. Look us up if you're passing through Iowa!",43.090509999999995,-89.35141999999999,"(43.090509999999995, -89.35141999999999)","(-9946554.57605592, 5325758.554624096)",-9946554.57605592,5325758.554624096
344,"Blvd. Constituyentes, El Medano Ejidal, 23479 Cabo San Lucas, B.C.S., Mexico",Tabasco Beach Parking next to Cascadas beach resort,Informal Campsite,"Tabasco Beach Parking beside Cascade. 100Pesos/night. Pretty busy during the day. But quiet at night. 100m to the beach and a short walk to town. 

 Local and public beach parking lot. 30 pesos for parking, 100 to spent the night. Pit toilets. From there you can rent sup, kayak or whatever to go to the arch. Many local families around come to spent the day in the beach. 
",22.891703,-109.901322,"(22.891703, -109.901322)","(-12234159.202547593, 2618927.190631524)",-12234159.202547593,2618927.190631524
345,"Forest Srv Rd, Blue Ridge, GA 30513, USA",Blue Mountain Wildlife Management Area,Wild Camping,"Beautiful River front camping in this WMA, a few nice sites right by the river. No ATT service, got Vzw with the booster.

Continue up the road for more/better sites. ",34.693317,-84.208045,"(34.693317, -84.208045)","(-9373996.690097066, 4122281.858352742)",-9373996.690097066,4122281.858352742
347,"491-1203 Jack Rabbit Rd, Hayesville, NC 28904, USA",Boat Ramp Lot,Informal Campsite,"Giant lot, no traffic, restrooms. Free. Lakeside",35.006612,-83.76535,"(35.006612, -83.76535)","(-9324716.108120339, 4164779.7247605687)",-9324716.108120339,4164779.7247605687
350,"1794 Idaho St, Elko, NV 89801, USA",Sinclair Gas Station/Truck Stop,Informal Campsite,"The Sinclair has a side parking lot for semi trucks so we asked the cashier inside if we could pay to park overnight. He said we could and didn't need to pay. I told him we'd get our gas here in the morning and buy some snacks. Not that there are signs in some areas stating No Parking. The semi area is labeled with a TRUCKS only sign in the North fence, that is where we parked. The restaurant two doors down let us use the restroom. Couldn't hear the traffic on the road next to the gas station. The semi trucks were on all night but it didn't bother is. It's not a quiet spot but was darker than a Walmart parking lot!",40.842839,-115.750872,"(40.842839, -115.750872)","(-12885328.129917389, 4989188.016416719)",-12885328.129917389,4989188.016416719
360,"Forest Rte 42N15, Weed, CA 96094, USA",Mtn. Shasta Forrest,Wild Camping,"A dirt road leaves 97 and heads towards the mountain. There are several good spots along the road. It continues up to some train tracks and continues towards the base of the mountain. A few trains did pass in the night so may not want to camp too close. Great views of mountain and valley. The GPS is the spot we chose, but there are many closer and easier to access. Snow on the ground during our visit, may not be accessible after big falls. ",41.480419,-122.32599099999999,"(41.480419, -122.32599099999999)","(-13617267.028902566, 5083463.707529529)",-13617267.028902566,5083463.707529529
361,"BLM 15050, Utah, USA",Bromide Canyon,Wild Camping,"Flat pull off on an otherwise steep and narrow dirt road, next to a small stream. We had gotten tired of the heat in the desert below and decided to gain some elevation to cool down. We spent a couple of days walking in the surrounding mountains, and relaxing. 

The road up is steep and rocky.",38.07264,-110.75986999999999,"(38.07264, -110.75986999999999)","(-12329732.328729177, 4589692.496900434)",-12329732.328729177,4589692.496900434
362,"3000 Co Rd 14, Ouray, CO 81427, USA",Dexter Creek ,Wild Camping,"flat site next to the Dexter Creek. Only a few minutes drive from Ouray, we spent a couple of days in Ouray, and drove out here in the evening. The river is loud but it's a sound I could listen to all day.",38.06532,-107.67226000000001,"(38.06532, -107.67226000000001)","(-11986021.155760959, 4588657.452075427)",-11986021.155760959,4588657.452075427
363,"Unnamed Road, North Rim, AZ 86052, USA",Saddle Mountain Wilderness,Wild Camping,"Boondocking site with stunning views over the saddle mountain wilderness. Plenty of nearby hiking.

Take the Grand Canyon Highway south from Jacob Lake. About 26 miles onwards (5 miles from the Grand Canyon entrance station) take the 611 east going east, opposite the entrance for the better signed 22. At the first signed junction, take the right fork onto the 610 headed towards the Marble View Point. Carry on this road for about 14 miles, until you reach the saddle mountain trail head.
",36.30315,-111.99468,"(36.30315, -111.99468)","(-12467190.74915562, 4342414.920821057)",-12467190.74915562,4342414.920821057
366,"Frontage Road, Alamo, NV 89001, USA",Little A'Le'Inn,Informal Campsite,"Restaurant in Rachel, NV near Area 51 that plays on alien theme.   They have for spots with water and electric hookups plus tent camping and dry camping area.  Tent and dry camping are free. ",37.647213,-115.746071,"(37.647213, -115.746071)","(-12884793.68504209, 4529708.018641719)",-12884793.68504209,4529708.018641719
369,"Unnamed Road, Utah, USA",Lower Bowns Resevoir,Wild Camping,"Dispersed camping sites tucked into the trees. There is a paid for campsite adjacent to the the reservoir but these sites are free and in a sheltered location.

We had intended to drive the back route into Capitol Reef but the trail is pretty extreme and totally unsuited to a large rv. The reservoir gives good fishing and swimming and makes a nice area to walk around.",38.104420000000005,-111.27751,"(38.104420000000005, -111.27751)","(-12387355.74994341, 4594187.376738403)",-12387355.74994341,4594187.376738403
370,"Forest Rd 088, Utah, USA",Boondocking site off FR 088,Wild Camping,"Boondocking site tucked into the trees. 

We spent the night there and intended to drive straight into Bryce National Park the following morning. Sadly the gate into the park was locked, but it was still a nice place to spend the night.",37.62661,-112.22813000000001,"(37.62661, -112.22813000000001)","(-12493178.284281312, 4526811.786917456)",-12493178.284281312,4526811.786917456
371,"Co Rd 9, Silverton, CO 81433, USA",Animas Forks Boondocking,Wild Camping,"Great camping spot next to the ghost town of Animas Forks. 

The road up is very rocky and is hard on an RV. There was a boulder on the trail further down when we visited, but we managed to squeeze past in our 2.5m wide truck.",37.928509999999996,-107.56726,"(37.928509999999996, -107.56726)","(-11974332.609227665, 4569331.590235709)",-11974332.609227665,4569331.590235709
373,"10-12 Parker Dam Rd, Parker Dam, CA 92267, USA",South Of Havasu Dam,Wild Camping,BLM pull off. Free,34.261517,-114.143583,"(34.261517, -114.143583)","(-12706405.536879757, 4063971.657877517)",-12706405.536879757,4063971.657877517
374,"29620 US-95, Blythe, CA 92225, USA",Colorado River Basin,Wild Camping,BLM free - no camping restrictions is what this means. ,33.924141,-114.534531,"(33.924141, -114.534531)","(-12749925.669166407, 4018620.5584248747)",-12749925.669166407,4018620.5584248747
375,"Indian Pass Rd, Winterhaven, CA 92283, USA",Indian Pass Road,Wild Camping,BLM Free,33.02067,-114.77379599999999,"(33.02067, -114.77379599999999)","(-12776560.527131056, 3898047.881674513)",-12776560.527131056,3898047.881674513
377,"1901 Tchoupitoulas St, New Orleans, LA 70130, USA",Walmart - Tchoupitoulas St.,Informal Campsite,"**please, park in the parking in front of the Walmart, with the police cars (GPS: N 29.92544, W 90.06998 ). If you park in the lot right by the Walmart, you might be tell to leave, as other comments mentioned **

Free overnight parking at Walmart in New Orleans. Restrooms & wifi at McDonalds. Quiet at night (it closes at 10) and pretty safe. A sheriff was on duty in Walmart while 20-30 police cars where parked outside of the store. 

Only 4km to the French Qt through the warehouse district. Safe route if you take the Tchoupitoulas street all the way to Canal Str. You can also ride the bus. ",29.925439,-90.06998399999999,"(29.925439, -90.06998399999999)","(-10026544.754638297, 3493969.3180600377)",-10026544.754638297,3493969.3180600377
384,"257R, Freeport, TX 77541, USA",FreePort Beaches,Wild Camping,"Free camping on the county beaches.
Watch signage near homes/neighborhoods.
Do not drive in the dunes, you will be ticketed.
main area of sand is usually packed and fine for all vehicles to drive on.  

stahlman park, near enough, has all hours free restroom w outdoor shower

Town is nearby, multiple good restaurants.",29.027040000000003,-95.18691,"(29.027040000000003, -95.18691)","(-10596158.35138516, 3379088.0713880844)",-10596158.35138516,3379088.0713880844
385,"139 S Oswell St, Bakersfield, CA 93307, USA",walmart ,Informal Campsite,"smaller walmart than normal, new and quiet. pulled in to the other walmart and felt it was in a bad part of town. found this location and felt much safer (notice the video cams?) nice place for a quick rest for free.",35.353669000000004,-118.948724,"(35.353669000000004, -118.948724)","(-13241311.386189638, 4212047.8219382465)",-13241311.386189638,4212047.8219382465
386,"AZ-95, Lake Havasu City, AZ 86406, USA",BLM camping free!,Wild Camping,"nice gravel areas away from the road- free camping. often used by those with ATV's, lots of large RV'S drive up throughout the area and camp but you will have space all alone and away from the noise and city :)",34.397784,-114.173152,"(34.397784, -114.173152)","(-12709697.142903024, 4082340.584330625)",-12709697.142903024,4082340.584330625
389,"Unnamed Road, Baja California, Mexico",ship wreck and camping ,Wild Camping,"used to be an actual campground but now it's just the remains. quiet, nice, and an outhouse with a shipwreck on the beach.",30.863858,-116.161368,"(30.863858, -116.161368)","(-12931024.335610062, 3615081.106015409)",-12931024.335610062,3615081.106015409
391,"State Rd S-27-201, Garnett, SC 29922, USA",Swamp Boat Ramp,Wild Camping,"Dead end road in middle of nowhere, looks like a boat launch but no signs. Free and quiet.",32.48537,-81.20755,"(32.48537, -81.20755)","(-9039983.114569303, 3827192.975946726)",-9039983.114569303,3827192.975946726
392,"Campo Mayo, Baja California, Mexico",Bahia Santa Maria,Wild Camping,told by the person managing the property that camping allowed (free) at the end of this road before the bay- after the houses. We ended up driving further south to Puertocitos. ,30.748485,-114.700083,"(30.748485, -114.700083)","(-12768354.833506215, 3600128.0306024295)",-12768354.833506215,3600128.0306024295
396,"22181 Resort Blvd, Flagstaff, AZ 86004, USA",Twin Arrows,Informal Campsite,"Big parking in font the Navajo hotel and casino where you can find 24 hours restrooms, bar, restaurant and shop. RV welcome, no place for tents. There's a 10$ lounge with showers and more it seems. ",35.166295,-111.25787700000001,"(35.166295, -111.25787700000001)","(-12385170.214380665, 4186502.9968441715)",-12385170.214380665,4186502.9968441715
399,"I-5, Ridgefield, WA 98642, USA",Gee Creek Rest Area,Informal Campsite,"Decent Rest area, with separated truck/car parking. Clean washrooms.
Southbound side has separate rv parking way in the back and a free dump station.",45.776720000000005,-122.66931000000001,"(45.776720000000005, -122.66931000000001)","(-13655485.125162223, 5744640.355437594)",-13655485.125162223,5744640.355437594
401,"Big River Rd, Mendocino, CA 95460, USA",Big River Estuary,Informal Campsite,"Looks like a popular dog walking area, so be prepared to wake early. But it's nicely tucked away in the back parking lot. Complete with washrooms!",39.303670000000004,-123.78438,"(39.303670000000004, -123.78438)","(-13779614.149761077, 4765263.511728825)",-13779614.149761077,4765263.511728825
402,"Indian Springs Trail, California, USA",Mojave Desert near Rainy Day Mine,Wild Camping,"Many different dirt roads to choose from. Don't forget to bring enough water! Probably unreachable except with a 4WD vehicle, no RVs except possibly a truck camper. See official NPS page at URL below, search inside page for ""Rainy Day Mine"".",35.19599,-115.82061999999999,"(35.19599, -115.82061999999999)","(-12893092.441761237, 4190547.402236503)",-12893092.441761237,4190547.402236503
403,"Gold Crown Rd, California, USA",Joshua Tree Outskirts,Wild Camping,Dirt road access into the park or a simple free desert camp spot just outside the park limits.,33.99034,-115.69573999999999,"(33.99034, -115.69573999999999)","(-12879190.86375097, 4027504.997891678)",-12879190.86375097,4027504.997891678
405,"8942 I-35, Cotulla, TX 78014, USA",La Salle County Rest Stop,Informal Campsite,"Texas rest stops are the best! Large, clean bathrooms open 24 hrs. Picnic tables. Electricity only inside the building for charging gadgets, not your rigs. No WiFi. FREE camp.",28.324270000000002,-99.27443000000001,"(28.324270000000002, -99.27443000000001)","(-11051178.996392483, 3289918.674208491)",-11051178.996392483,3289918.674208491
406,"I-10, Texas, USA",Guadalupe County Rest Stop,Informal Campsite,"Texas rest stops are the best! Large, clean bathrooms open 24 hrs. Picnic tables. Electricity only inside the building for charging gadgets. No WiFi. FREE camp.",29.61484,-97.79961,"(29.61484, -97.79961)","(-10887002.784980746, 3454136.5726510934)",-10887002.784980746,3454136.5726510934
407,"I-10, Glidden, TX 78943, USA",Colorado County Rest Stop,Informal Campsite,"Texas rest stops are the best! Large, clean bathrooms open 24 hrs. Picnic tables. Electricity only inside the building for charging gadgets. No WiFi. FREE camp.",29.692940000000004,-96.61015,"(29.692940000000004, -96.61015)","(-10754592.70346178, 3464140.892064913)",-10754592.70346178,3464140.892064913
408,"26022 I-10, Anahuac, TX 77514, USA",Chambers County Rest Stop,Informal Campsite,"Texas rest stops are the best! Large, clean bathrooms open 24 hrs. Picnic tables. Electricity only inside the building for charging gadgets. No WiFi. FREE camp.",29.837120000000002,-94.60854,"(29.837120000000002, -94.60854)","(-10531774.497495055, 3482630.272856431)",-10531774.497495055,3482630.272856431
409,"I-59, Cottondale, AL 35453, USA",Alabama Interstate Rest Area,Informal Campsite,"Large, clean bathrooms open 24 hrs. Picnic tables. No WiFi. FREE camp.",33.18841,-87.32445,"(33.18841, -87.32445)","(-9720913.307802679, 3920339.025460908)",-9720913.307802679,3920339.025460908
412,"Coldfoot Road, Fairbanks, AK 99701, USA",Coldfoot Camp,Informal Campsite,"Coldfoot Camp is a known truck stop on the Dalton Highway. it offers food, gas and accommodation as well as an RV park. I slept on the grounds in my car.",67.25125200000001,-150.172764,"(67.25125200000001, -150.172764)","(-16717155.619498445, 10228013.08941125)",-16717155.619498445,10228013.08941125
417,"20001-20011 State Hwy 20, Clearlake Oaks, CA 95423, USA",Cache Creek BLM Trailhead,Informal Campsite,"A BLM trailhead. Tent camping is permitted 500 feet from the parking lot in this big and beautiful wilderness area. The 3 mile hike to Cache Creek is great and you can tent camp there too along the creek or in a green meadow. Staying overnight in the BLM parking lot inside your vehicle is fine too. Pit toilets. No running water. No cell signal. Lots of hikers, dog walkers, and a few mountain bikers and hunters. Quiet at night. ",38.987678,-122.53981,"(38.987678, -122.53981)","(-13641069.251104493, 4719906.7054664595)",-13641069.251104493,4719906.7054664595
420,"5525 TX-361, Port Aransas, TX 78373, USA",Port Aransas Beach,Wild Camping,"Nice little island with a sandy beach and great people
Stays of up to three nights are permitted along the 8 mile long beach. 
RV, tent and other types of camping are permitted.
Some portable toilets & trash cans. ",27.760070000000002,-97.110796,"(27.760070000000002, -97.110796)","(-10810324.361249467, 3218757.6443753433)",-10810324.361249467,3218757.6443753433
421,"20420 Park Rd 22, Corpus Christi, TX 78418, USA",Padre Island National Seashore South Beach,Wild Camping,"a beautiful beach on Padre Island
free camping on the beach is permitted up to 14 days
no restrooms, no water , no Stress
just a few other people here -  just perfect!
you can also drive along the beach for miles but in some areas a 4x4 is recommended",27.415359000000002,-97.301803,"(27.415359000000002, -97.301803)","(-10831587.16322742, 3175461.9014980877)",-10831587.16322742,3175461.9014980877
422,"3312 County Rd 257, Freeport, TX 77541, USA",surfside  beach ,Wild Camping,"  Super nice wide beach with several driveways. Easy to drive. 

Super schöner breiter langer Strand mit mehreren Einfahrten. Gut befahrbar.",28.989440000000002,-95.23808000000001,"(28.989440000000002, -95.23808000000001)","(-10601854.569729052, 3374302.05218493)",-10601854.569729052,3374302.05218493
426,"166-160 Gulf Ave, Creole, LA 70632, USA",Rutherford Beach,Wild Camping,"Amazing location right on the water. Sand firm enough to safely drive on! Backed up to beach and slept with back hatch opened merely a few feet from the crashing waves! Will definitely return when passing through! since there are nice big dumpsters take a couple of minutes and pick up a few pieces of trash...will only make it better!
",29.75903,-93.12418000000001,"(29.75903, -93.12418000000001)","(-10366536.298141152, 3472612.850684168)",-10366536.298141152,3472612.850684168
430,"101 W 600 N, Kanab, UT 84741, USA",Kanab ,Informal Campsite, Quiet and conveniently located in Kanab's suburbs. Wi-Fi from SCC sometimes works. ,37.058279,-112.526356,"(37.058279, -112.526356)","(-12526376.650742624, 4447233.244481868)",-12526376.650742624,4447233.244481868
431,"265 E 300 S, Kanab, UT 84741, USA",Kanab,Informal Campsite,"Parking Subway gratuit


[…………….. post edited by admin …………………]",37.04356,-112.52253,"(37.04356, -112.52253)","(-12525950.74237085, 4445180.229987465)",-12525950.74237085,4445180.229987465
436,"34590 Old Black Canyon Hwy, Black Canyon City, AZ 85324, USA",Black Canyon,Wild Camping,"Good spot, pretty calm and clean toilets ",34.0524,-112.150807,"(34.0524, -112.150807)","(-12484570.727294702, 4035840.237935425)",-12484570.727294702,4035840.237935425
437,"1025-1075 US-180, Deming, NM 88030, USA", Deming Walmart ,Informal Campsite,Good spot. Very popular for RV's and trucks. Got here at 8:15 and a lot of folks already here. Actually pretty quiet later which was a nice surprise. Can hear trains early though. Overall very good overnight spot.,32.26914,-107.7469,"(32.26914, -107.7469)","(-11994330.042553768, 3798691.515920726)",-11994330.042553768,3798691.515920726
438,"700 E 1st St, Alamogordo, NM 88310, USA",Alamogordo Walmart ,Informal Campsite,fine to park overnight if park down the left hand side lots of RVs there,32.88707,-105.95573999999999,"(32.88707, -105.95573999999999)","(-11794939.023424488, 3880323.970018721)",-11794939.023424488,3880323.970018721
439,"1879-1909 US-180, Carlsbad, NM 88220, USA",BLM camp spots near Carlsbad Caverns,Wild Camping,"Free Spot 
Primitive campsite up a hill. Nice pullouts with small rock fire pits. Nice views. Remote & quiet. Road is large gravel stones, 2WD fine but make sure to have clearance. ",32.204929,-104.333049,"(32.204929, -104.333049)","(-11614301.887589661, 3790240.905610238)",-11614301.887589661,3790240.905610238
447,"1332 SE Military Dr, San Antonio, TX 78214, USA",San Antonio Walmart ,Informal Campsite,RV Parking Very quiet place for overnight special on left site of building in the Corner,29.352942,-98.477372,"(29.352942, -98.477372)","(-10962450.905699776, 3420644.7967623635)",-10962450.905699776,3420644.7967623635
449,"13018 Rest Area, Terra Ceia, FL 34250, USA",I-275 Rest Area,Informal Campsite,"ADMIN NOTE: user report you cannot stay overnight. THree hours ONLY. Please respect the rules. 

Three hour rest area. Great waterfront view. Public toilets and vending machines. ",27.584837,-82.614347,"(27.584837, -82.614347)","(-9196587.040258808, 3196731.3509330945)",-9196587.040258808,3196731.3509330945
452,"E Yucca Farm Rd, Elgin, AZ 85611, USA",Cieneguita BLM Land,Wild Camping,"Primitive campsite in the desert. Very little shade. Free.
Awesome views Road in is good",31.76635,-110.626504,"(31.76635, -110.626504)","(-12314886.093520042, 3732679.3596575432)",-12314886.093520042,3732679.3596575432
455,"1463-1473 E Main St, Fredericksburg, TX 78624, USA",Fredericksburg Walmart,Informal Campsite,Walmart Fredericksburg parking lot. The usual.,30.255936,-98.850624,"(30.255936, -98.850624)","(-11004001.128277346, 3536490.634678839)",-11004001.128277346,3536490.634678839
461,"I-10, Gautier, MS 39553, USA",I10 rest area,Informal Campsite,"24 hours security and toilet. Sign at entrance says ""no overnight parking"", but security guard said it's no problem and directed to park next to a picnic table",30.438779999999998,-88.618655,"(30.438779999999998, -88.618655)","(-9864983.549384788, 3560076.531358875)",-9864983.549384788,3560076.531358875
463,"225-453 Rte 3, Babb, MT 59411, USA",Swiftcurrent Creek,Wild Camping,"ADMIN  NOTE: No overnight camping allowed, please respect the wishes of the locals. 

Comment: It is part of the black feet reservation and it says that it is not permitted for non members of the tribe. Do it at your own risk, just know that they are pretty territorial  

Comment: there is a no camp sign now , or with a permit ...:( ",48.83123,-113.50731999999999,"(48.83123, -113.50731999999999)","(-12635577.063709157, 6246273.0235684)",-12635577.063709157,6246273.0235684
468,"US-90, Comstock, TX 78837, USA",picnic area,Informal Campsite,big rig friendly. ,29.765390000000004,-101.386267,"(29.765390000000004, -101.386267)","(-11286267.615870876, 3473428.422198191)",-11286267.615870876,3473428.422198191
469,"Unnamed Road, Utah, USA",Great Gallery,Informal Campsite,Parking lot. Accessible with a european RV,38.47371,-110.19945,"(38.47371, -110.19945)","(-12267346.659698812, 4646562.985384581)",-12267346.659698812,4646562.985384581
470,"Painted Desert Rim Dr, Winslow, AZ 86047, USA",Little painted desert,Informal Campsite,Informal campground with a wonderful view at the sunset on the Little painted desert,35.1559,-110.47318,"(35.1559, -110.47318)","(-12297818.143913655, 4185087.5656254706)",-12297818.143913655,4185087.5656254706
472,"Aguirre Springs Rd, Las Cruces, NM 88011, USA",Organ,Wild Camping,"  Aguirre springs CG. Alternative when the gate is closed after 5pm. Quiet but windy. 

Aguirre springs CG. Alternative lorsque la barrière est fermée après 17h. Calme mais venté.",32.41045,-106.54825,"(32.41045, -106.54825)","(-11860896.93491441, 3817309.981341967)",-11860896.93491441,3817309.981341967
479,"128 Westland Way, Rock Springs, WY 82901, USA","Walmart, Rock Springs",Informal Campsite,"Open 24h, many fast food restaurants nearby",41.578790000000005,-109.25188999999999,"(41.578790000000005, -109.25188999999999)","(-12161864.763002736, 5098091.57194065)",-12161864.763002736,5098091.57194065
484,"UT-95, Lake Powell, UT 84533, USA",Irish Canyon,Wild Camping,Nice area for free camping near the Glen Canyon NRA. Some spots have fire pits. Camping officially allowed. FREE,38.0161,-110.53177,"(38.0161, -110.53177)","(-12304340.352879232, 4581700.452626342)",-12304340.352879232,4581700.452626342
499,"Muddy Rd, Redwood City, CA 94062, USA",Skyline Boulevard,Wild Camping,"Small spot in front of an old gate hidden in the trees. Directly at the road, a lot of trash, noisy until 11pm. FREE",37.47876,-122.3596,"(37.47876, -122.3596)","(-13621008.365668636, 4506051.523078219)",-13621008.365668636,4506051.523078219
502,"CA-41, Oakhurst, CA 93644, USA","FR6S15, Sierra National Forest",Wild Camping,"Pullout at gravel road in the forest, no traffic, quiet, no facilities. FREE",37.43553,-119.64605,"(37.43553, -119.64605)","(-13318937.361426549, 4499989.176617949)",-13318937.361426549,4499989.176617949
503,"Forest Rte 14S29, California, USA","FR14S29, Sequoia National Forest",Wild Camping,"Nice spot about 30m from the forest road FR14S29. Shade in the afternoon, small creek nearby, very quiet. FREE",36.68504,-118.86208,"(36.68504, -118.86208)","(-13231666.220229348, 4395295.8822116805)",-13231666.220229348,4395295.8822116805
507,"St Bernard St, Breaux Bridge, LA 70517, USA",Park Pont Breaux,Informal Campsite,big parking area; big rig friendly; restaurants near by; kajak hiring possible in the park by cory,30.275619,-91.898365,"(30.275619, -91.898365)","(-10230079.196534393, 3539027.522260111)",-10230079.196534393,3539027.522260111
516,"2410 Dodson Ave, Del Rio, TX 78840, USA",Walmart,Informal Campsite,"Walmart parking lot. Good place to stay before or after a border crossing. 

The WiFi actually works well here and there's a water dispensing machine inside the store. I parked around the side next to the grassy park and hardly saw anyone because I wasn't near the entrance.",29.39648,-100.901257,"(29.39648, -100.901257)","(-11232276.549641231, 3426206.489564464)",-11232276.549641231,3426206.489564464
519,"Sl 25 N, Langtry, TX 78871, USA",Langtry,Wild Camping,Community Center Ground. Wifi au Visitor Center de l'autre cote de la rue.,29.809296999999997,-101.558806,"(29.809296999999997, -101.558806)","(-11305474.569492858, 3479060.228487331)",-11305474.569492858,3479060.228487331
522,"Grapevine Canyon Rd, Julian, CA 92036, USA",Anza Borrego State park Yaqui Wells Campground ,Wild Camping,Free dispersed camping all through out the park,33.136833,-116.39093700000001,"(33.136833, -116.39093700000001)","(-12956579.839791983, 3913480.371441448)",-12956579.839791983,3913480.371441448
524,"Little Valley Rd, Green River, UT 84525, USA",Crystal Geyser,Wild Camping,Free. Unestablished sites. We didnt see the geyser go off. Apparently its one or two times a day. A good overnight spot. 10 km off the highway on unmaintained road. ,38.936617,-110.13488999999998,"(38.936617, -110.13488999999998)","(-12260159.873373196, 4712596.563995489)",-12260159.873373196,4712596.563995489
525,"Cohens Bluff Rd, Luray, SC 29932, USA",Savannah River Boat Ramp,Wild Camping,Dead end road in middle of nowhere. Boat ramp without signs.,32.841914,-81.426606,"(32.841914, -81.426606)","(-9064368.316944515, 3874339.440809582)",-9064368.316944515,3874339.440809582
528,"20320-20346 US-70, Holloman AFB, NM 88330, USA",Holloman lake Campground,Wild Camping,"A little busy with lots of RVs but if you keep driving down the road you can get A little further away from the crowd. However, keep in mind this is essentially a beach so there is no privacy between sites.
Also a little noisy from the military base / airstrip. Multiple take offs/landing heard though they seemed to stop at night.

All in all, convenient location, free, but not really the feel of an isolated campsite if that is what you're looking for. Great sunset over the lake though!",32.81218,-106.12173999999999,"(32.81218, -106.12173999999999)","(-11813418.058896169, 3870400.4531864617)",-11813418.058896169,3870400.4531864617
529,"Torreon Springs Rd, Socorro, NM 87801, USA",The Box ,Wild Camping,BLM Campground. ,34.00225,-106.991975,"(34.00225, -106.991975)","(-11910292.175966656, 4029104.1501633935)",-11910292.175966656,4029104.1501633935
536,"Kachina Trail, Flagstaff, AZ 86001, USA",Arizona Snow Bowl,Informal Campsite,"big hidden parking lot in the middle of a forest next to the Arizona Snow Bowl 

",35.32723,-111.70676999999999,"(35.32723, -111.70676999999999)","(-12435140.754561327, 4208439.79217744)",-12435140.754561327,4208439.79217744
537,"Observatory Access Rd, Flagstaff, AZ 86001, USA",Naval Observatory Coconino National Forest ,Wild Camping,"a lot of campsites in the beautiful forest next to flagstaff 
nice and quiet 
some sites have fire rings
the best-it's free ",35.188106,-111.734353,"(35.188106, -111.734353)","(-12438211.280075878, 4189473.471578432)",-12438211.280075878,4189473.471578432
538,"430 FL-30, Apalachicola, FL 32320, USA",Seafood landing park & picnic area. overnight allowed,Informal Campsite,"a picnic area waterfront; very quiet, overnight    allowed",29.713447,-85.019936,"(29.713447, -85.019936)","(-9464375.982796708, 3466769.050681229)",-9464375.982796708,3466769.050681229
539,"Madera Canyon Roadside Park, Fort Davis, TX 79734, USA",Madera Canyon Loop Roadside Park,Informal Campsite,"  Picnic Aera with table, barbecue, garbage under trees, next to the street, but quiet (free) 

Picknick Aera mit Tisch, Grill,  Abfallkübel unter Bäumen, neben der Straße, doch ruhig (free)
",30.706129999999998,-104.10479000000001,"(30.706129999999998, -104.10479000000001)","(-11588892.21194068, 3594643.050734668)",-11588892.21194068,3594643.050734668
541,"Stuart Mesa Rd, Oceanside, CA 92058, USA",Rest Area,Informal Campsite,0$ great truck stop to overnight. Clean bathrooms picnic tables. ,33.269129,-117.43536,"(33.269129, -117.43536)","(-13072844.476324767, 3931081.0633364846)",-13072844.476324767,3931081.0633364846
544,"148-200 Landing Blvd, League City, TX 77573, USA",Walmart Neighbourhood Market,Informal Campsite,Walmart parking. Close to Gulf Freeway I-45 ,29.499499,-95.12501999999999,"(29.499499, -95.12501999999999)","(-10589268.788099963, 3439375.982415699)",-10589268.788099963,3439375.982415699
545,"Indn Rte 12, Tsaile, AZ 86556, USA",Wheatfields Lake,Wild Camping,Great spot on the lake. lot of place to camp. Picnic tables and grill in the area. ,36.203744,-109.09979799999999,"(36.203744, -109.09979799999999)","(-12144933.959009007, 4328692.569274765)",-12144933.959009007,4328692.569274765
547,"Beardsley, Waddell, AZ 85355, USA",Boondocking Near White Tanks,Wild Camping,"ADMIN NOTE: No overnight camping allowed, please respect the wishes of the locals. 

New sign with “State Land - NO TRESPASSING”",33.56649,-112.47055,"(33.56649, -112.47055)","(-12520164.355239416, 3970739.7048477)",-12520164.355239416,3970739.7048477
549,"Fire Rd 682, Grand Canyon Village, AZ 86023, USA","Kaibab National Forest, free",Wild Camping,"  At the east entrance to the Grand Canyon NP, several parking spaces 

Am Osteingang zum Grand Canyon NP , mehrere Stellplätze ",35.97837,-111.79567,"(35.97837, -111.79567)","(-12445037.05729285, 4297645.525420178)",-12445037.05729285,4297645.525420178
550,"Smoky Mountain Rd, Utah, USA",on the Smoky Mountain Road,Wild Camping,a small nice place ,37.162621,-111.45006399999998,"(37.162621, -111.45006399999998)","(-12406564.373357749, 4461798.362883107)",-12406564.373357749,4461798.362883107
551,"Hole in the Rock Rd, Escalante, UT 84726, USA",on the Hole in the rock road,Wild Camping,nice place with trees and fireplaces,37.653526,-111.462204,"(37.653526, -111.462204)","(-12407915.79197598, 4530595.618676363)",-12407915.79197598,4530595.618676363
552,"NM-4, Los Alamos, NM 87544, USA",Santa Fe National Forest,Wild Camping,"  Several places with fireplaces in the National Forest(off the highway 4) near the Bandelier National Monument and Los Alamos.
 Dirt road is rutted but had no problems with my Honda Accord.








",35.83556,-106.3712,"(35.83556, -106.3712)","(-11841187.819069462, 4278018.208399764)",-11841187.819069462,4278018.208399764
556,"100-150 Hayden Ave, Pass Christian, MS 39571, USA",Walmart ,Informal Campsite,"huge walmart right by the beach, other motor homes here too, quiet and perfect.",30.334615999999997,-89.190119,"(30.334615999999997, -89.190119)","(-9928598.630871475, 3546634.5330943223)",-9928598.630871475,3546634.5330943223
561,"US-89, Kanab, UT 84741, USA",Kanab wild camping very nice!,Wild Camping,"there were already so many options in Kanab,  but none as nice as this one!
just 10 min away from the BLM office for the wave lottery 
beautiful landscape,  trees and a smaller river
a lot of possible sites 
free!",37.077867,-112.54038200000001,"(37.077867, -112.54038200000001)","(-12527938.01792049, 4449966.007661193)",-12527938.01792049,4449966.007661193
562,"6598 Park Blvd, Joshua Tree, CA 92252, USA",Infocenter parking,Informal Campsite,"- Parking without ""No overnight parking"" signs.
- Quiet for city spot.
- WiFi 24h in infocenter
- Showers in souvenier shop",34.133534000000004,-116.315595,"(34.133534000000004, -116.315595)","(-12948192.806716638, 4046746.5042500976)",-12948192.806716638,4046746.5042500976
564,"226 Morgan St, New Orleans, LA 70114, USA",Algiers Ferry Parking (New Orleans),Wild Camping,"MODERATOR NOTE: No overnight camping allowed, please respect the wishes of the locals. 

There are signs. No overnight parking",29.953925,-90.054392,"(29.953925, -90.054392)","(-10024809.06113785, 3497628.705655102)",-10024809.06113785,3497628.705655102
565,"Willow Springs, Moab, UT 84532, USA",Willow Springs Road BLM,Wild Camping,"Dry camping in established sites. Free on blm land. Room for 6-8 full size Rv or trailer.

Just a few miles out of Moab city center, Arches National Park and Canyonlands. Highly recommended.",38.699465000000004,-109.687253,"(38.699465000000004, -109.687253)","(-12210329.150472969, 4678713.485266238)",-12210329.150472969,4678713.485266238
566,"NF-564, Ely, NV 89301, USA",East Creek Campground,Wild Camping,"Simple utterly quiet campground with very few designated places on a creek. No hookups, one bio restroom, tables and fireplaces. Free in winter, self registration",39.496518,-114.643875,"(39.496518, -114.643875)","(-12762097.787567705, 4793045.136127141)",-12762097.787567705,4793045.136127141
568,"E 96 Ranch Rd, Florence, AZ 85132, USA",East 96 Ranch Rd. ,Wild Camping,Wild camping on BLM land. A good dirt road several pull outs. ,32.859889,-111.23013799999998,"(32.859889, -111.23013799999998)","(-12382082.323025547, 3876721.304331654)",-12382082.323025547,3876721.304331654
569,"4450 Key Deer Blvd, Big Pine Key, FL 33043, USA",keys Deer Refug.,Wild Camping,"Roadside where you can park overnight

frei stehen",24.725019,-81.387844,"(24.725019, -81.387844)","(-9060053.350842385, 2842007.0125770867)",-9060053.350842385,2842007.0125770867
571,"13601-13639 Maute Rd, Grass Lake, MI 49240, USA",Camp Waterloo,Wild Camping,"Secluded clearing behind the site of a now demolished correction facility. A shady spot hidden from view of the road, and nice free place to spend the night after walking in the surrounding Waterloo State Recreation Area.",42.32286,-84.16866999999999,"(42.32286, -84.16866999999999)","(-9369613.48514708, 5209465.670956491)",-9369613.48514708,5209465.670956491
572,"Forest Rd 100, Colorado, USA",Lands End - Grand Mesa,Wild Camping,"Beautiful boondocking spot close to the Lands End Observatory. Good views from the vehicle accessible area, stunning views a short way beyond the rocks blocking the route. Secluded and not easily visible from the road. 

The short track from Land End Road (FS 100) is deceptively rocky but should be fine in any high clearance vehicle. ",39.004870000000004,-108.20577,"(39.004870000000004, -108.20577)","(-12045411.217294078, 4722369.18230303)",-12045411.217294078,4722369.18230303
573,"985 US-89, Page, AZ 86040, USA",BLM Glen Canyon Dam ,Wild Camping,"—CLOSED—
cool BLM site just around the corner of the Dam/ 5 min to Page
some sites need 4x4 as it's very soft sand",36.936707,-111.49773400000001,"(36.936707, -111.49773400000001)","(-12411870.973483866, 4430288.227397787)",-12411870.973483866,4430288.227397787
577,"UT-24, Hanksville, UT 84734, USA",Behind the rock,Informal Campsite,"- just place to park overnight
- covered from highway by rock
- BLM land
- 2WD ok, not sure if for big rigs
",38.462933,-110.674748,"(38.462933, -110.674748)","(-12320256.591033872, 4645030.720550634)",-12320256.591033872,4645030.720550634
578,"Unnamed Road, Tres Piedras, NM 87577, USA",Tres Piedras National Forest,Wild Camping,"  Some places with table and fire places in the light forest 

einige Plätze mit Tisch und Feuerstellen im lichten Wald",36.65639,-105.97849,"(36.65639, -105.97849)","(-11797471.541840034, 4391319.596161576)",-11797471.541840034,4391319.596161576
586,"2950 Pepperell Pkwy, Opelika, AL 36801, USA",walmart ,Informal Campsite,great for a night and decent wifi,32.636507,-85.421219,"(32.636507, -85.421219)","(-9509046.602020703, 3847155.1416932247)",-9509046.602020703,3847155.1416932247
587,"2252-2658 N Creek Rd, Buchanan, VA 24066, USA",camp spots all along the river ,Wild Camping,this road has plenty of flat pull offs to park next to the creek and free.,37.542007,-79.583497,"(37.542007, -79.583497)","(-8859194.361588014, 4514927.270585659)",-8859194.361588014,4514927.270585659
589,"12973-13005 Fair Lakes Shopping Center, Fairfax, VA 22033, USA",walmart/target ,Informal Campsite,"if you park in between the two, you can pick up open wifi from the Olive garden. Big complex quiet for the night.",38.858538,-77.390653,"(38.858538, -77.390653)","(-8615088.08411893, 4701428.563896418)",-8615088.08411893,4701428.563896418
590,"Quarterfield Park Dr, Severn, MD 21144, USA",walmart,Informal Campsite,"quiet for a night, restrooms available and a nice spot to stop before venturing into Baltimore or South into DC",39.145737,-76.647359,"(39.145737, -76.647359)","(-8532344.974529233, 4742568.698818018)",-8532344.974529233,4742568.698818018
591,"US-395, Janesville, CA 96114, USA",Honey Lake Rest Area,Informal Campsite,"Nice rest area, good alternative to Walmart parking. Fair amount of noise from hwy, but gets quiet at night.",40.257003999999995,-120.465948,"(40.257003999999995, -120.465948)","(-13410207.989288973, 4903359.987300148)",-13410207.989288973,4903359.987300148
593,"300 NV-160, Pahrump, NV 89048, USA",Walmart,Informal Campsite,24 hour Walmart. No problems staying here. ,36.215175,-115.99406,"(36.215175, -115.99406)","(-12912399.694244424, 4330269.656625268)",-12912399.694244424,4330269.656625268
595,"2040 Lincoln Hwy E, Lancaster, PA 17602, USA",walmart parking lot,Informal Campsite,overnight parking allowed and you can pick up wifi from nearby Taco bell. quiet and close to the cool town of Lancaster where you can your the Amish farm and see covered bridges.,40.032043,-76.24175100000001,"(40.032043, -76.24175100000001)","(-8487192.898507556, 4870599.774079989)",-8487192.898507556,4870599.774079989
596,"23 Beech St, Natchez, MS 39120, USA",Natchez Visitor Center,Informal Campsite,"Free parking with 30 amp & 110V plug-ins. NO POTABLE WATER. Bathrooms locked at 5pm, reopened at 8am. Nice overnighter!
Update
Drinking water in front of building by seating area. Hook ups no longer available. 10th Jan 2020.",31.553728999999997,-91.41272099999999,"(31.553728999999997, -91.41272099999999)","(-10176017.553747585, 3704872.1297216485)",-10176017.553747585,3704872.1297216485
